,BusinessName,Address,CITY,State,ZIP,LICSTATUS,LICENSECAT,DESCRIPT,LicenseAddDtTm,dayphn,Property_ID,Latitude,Longitude
201,Ciao Roma,5 North,Boston,MA,2113,Active,FS,Eating & Drinking,4/19/17 9:56,16178234478,361068,-34.628454,-55.057956
1125,Mt. Olympic Pizza,187 Wolcott,Hyde Park,MA,2136,Active,FT,Eating & Drinking w/ Take Out,5/21/08 13:40,16175843611,156416,42.237125,-71.13227
570,DUNKIN DONUTS/HYDE PK AVE,1800 Hyde Park,Hyde Park,MA,2136,Active,FT,Eating & Drinking w/ Take Out,12/7/06 13:35,17813952060,156665,42.237883,-71.132132
1556,Stop & Shop #413,1025 Truman,Hyde Park,MA,2136,Active,FS,Eating & Drinking,3/13/12 12:41,16173232160,156433,42.24246,-71.127331
592,Murl's Kitchen,143 Washington,Dorchester,MA,2121,Active,FT,Eating & Drinking w/ Take Out,4/18/19 14:32,16175067331,354502,42.244377,-71.123361
316,CAVAN CAFE,1406 Hyde Park,Hyde Park,MA,2136,Active,FS,Eating & Drinking,12/7/06 13:35,16173613390,156733,42.250633,-71.125728
1349,Richy's,1461 River,Hyde Park,MA,2136,Active,FS,Eating & Drinking,12/7/06 13:34,16173611545,155735,42.25194,-71.13119
212,Coffee Break Cafe,680 Truman,Hyde Park,MA,2136,Active,FT,Eating & Drinking w/ Take Out,11/6/18 12:36,16179109175,351891,42.25218,-71.11829
178,CAPPY'S PIZZA,672 TRUMAN ,HYDE PARK,MA,2136,Active,FT,Eating & Drinking w/ Take Out,12/7/06 13:35,16173640111,,42.252227,-71.118161
482,Domino's Pizza (695 Truman Pkwy),695 Truman,Hyde Park,MA,2136,Active,FT,Eating & Drinking w/ Take Out,11/2/12 9:56,16173646550,154866,42.25246,-71.11896
576,MODEL CAFE,7 Beacon,Boston,MA,2134,Active,FS,Eating & Drinking,3/16/21 13:21,16177823222,403595,42.25252,-71.11745
1050,Mcdonalds,1312 Hyde Park,Hyde Park,MA,2136,Active,FT,Eating & Drinking w/ Take Out,9/2/16 8:42,16172883468,155965,42.253729,-71.12432
1230,Park 54 Restaurant and Lounge,81 Fairmount,Hyde Park,MA,2136,Active,FS,Eating & Drinking,4/12/22 12:19,16179109704,55754,42.25459,-71.12019
338,Fair Nutrition,57 Fairmount,Boston,MA,2136,Active,FT,Eating & Drinking w/ Take Out,3/2/20 15:20,16179221923,413422,42.254967,-71.120461
630,ONLY ONE JAMAICAN RESTAURANT,1345 Hyde Park,Boston,MA,2136,Active,FS,Eating & Drinking,4/29/19 11:17,10000000000,413413,42.254993,-71.12665
672,Piece of Pizza,1280 Hyde Park,Hyde Park,MA,2136,Active,FT,Eating & Drinking w/ Take Out,5/19/08 8:13,16173641113,,42.254993,-71.12665
1564,Subway,1281 Hyde Park,Hyde Park,MA,2136,Active,FT,Eating & Drinking w/ Take Out,11/1/16 9:00,16173617373,156201,42.255266,-71.1245
67,Antonios Bacaro,1 Fairmount,Hyde Park,MA,2136,Active,FS,Eating & Drinking,7/6/15 12:12,16179479407,55669,42.25558,-71.12118
1223,PAPA GINO'S,1270 River,Hyde Park,MA,2136,Active,FT,Eating & Drinking w/ Take Out,12/30/19 10:41,16173644300,155817,42.255676,-71.123869
1353,Rincon Caribeno Restaurant,18 Fairmount,Hyde Park,MA,2136,Active,FS,Eating & Drinking,7/21/17 9:38,16173609775,156920,42.255693,-71.1208
1916,Zaz Restaurant,1230 River,Hyde Park,MA,2136,Active,FS,Eating & Drinking,9/5/12 10:03,16172723083,169177,42.255789,-71.122989
724,Gourmet Fish,2 Fairmount,Hyde Park,MA,2136,Active,FT,Eating & Drinking w/ Take Out,5/20/21 10:13,17814374151,55689,42.25584,-71.12089
481,Las Vegas Seafood Restaurant,1200 River,Boston,MA,2136,Active,FS,Eating & Drinking,12/7/06 13:34,16173642772,413554,42.255857,-71.121761
705,Red Moon Restuarant,1299 River,Hyde Park,MA,2136,Active,FT,Eating & Drinking w/ Take Out,1/26/15 9:25,16174479173,351513,42.255891,-71.124982
1620,TALK AND WOK CAFE,1277 River,Hyde Park,MA,2136,Active,FS,Eating & Drinking,12/5/19 14:55,16173616888,157510,42.255952,-71.124289
1361,River Grille Restaurant & Cafe Inc.,1263 River,Hyde Park,MA,2136,Active,FS,Eating & Drinking,2/23/11 8:21,16173646600,156013,42.256005,-71.12376
607,New Yorker Fried Chicken,1251 River,Boston,MA,2136,Active,FT,Eating & Drinking w/ Take Out,4/24/18 11:38,16173610709,413523,42.256067,-71.123451
503,Los Delicias Colombianas 2,1231 River,Hyde Park,MA,2136,Active,FS,Eating & Drinking,1/22/21 13:00,18579284667,352031,42.256147,-71.123041
629,FARAH'S CAFE RESTAURANT,1158 River,Hyde Park,MA,2136,Active,FS,Eating & Drinking,10/23/12 12:40,16179103203,156333,42.256378,-71.120349
628,Fan Fan Restaurant,15 Harvard,Hyde Park,MA,2136,Active,FS,Eating & Drinking,12/3/09 9:15,16173641390,70313,42.256381,-71.122017
1710,THE MASTER MCGRATH,1152 River,Hyde Park,MA,2136,Active,FS,Eating & Drinking,12/7/06 13:36,16173618011,116331,42.25647,-71.12031
5,20TH CENTRY BOWLING LANES,1231 Hyde Park,Hyde Park,MA,2136,Active,FT,Eating & Drinking w/ Take Out,12/7/06 13:34,13392372645,77089,42.25682,-71.12411
161,Caffe Nero,10 Summer,Boston,MA,2110,Active,FS,Eating & Drinking,6/30/16 13:54,16172458902,352683,42.256865,-71.125709
723,Roche Brothers Supermarket,10 Summer,Boston,MA,2110,Active,FS,Eating & Drinking,4/28/15 8:48,10000000000,352683,42.256865,-71.125709
1745,Thyme 2 Eat,11 Walter,Hyde Park,MA,2136,Active,FT,Eating & Drinking w/ Take Out,1/13/22 13:53,17819746976,142238,42.25693,-71.11934
513,Dunkin Donuts,1200 Hyde Park,Hyde Park,MA,2136,Active,FT,Eating & Drinking w/ Take Out,12/7/06 13:34,16173642010,157265,42.257869,-71.12321
892,Kentucky Fried Chicken,5318 Washington,West Roxbury,MA,2132,Active,FT,Eating & Drinking w/ Take Out,3/25/11 14:36,17819820755,145716,42.25787,-71.1608
296,Dunkin' Donuts,21 AUSTIN,CHARLESTOWN,MA,2129,Active,FT,Eating & Drinking w/ Take Out,12/7/06 13:34,16172415917,,42.2581,-71.12591
976,Little Haiti International Cusine,1184 Hyde Park,Hyde Park,MA,2136,Active,FS,Eating & Drinking,8/20/12 14:11,18572539881,156925,42.258529,-71.12376
558,DUNKIN DONUTS (WEST ROXBURY),5305 Washington,West Roxbury,MA,2132,Active,FT,Eating & Drinking w/ Take Out,12/7/06 13:35,16173393331,145711,42.25864,-71.16071
82,Asian Thai Eatery,1064 River,Hyde Park,MA,2136,Active,FS,Eating & Drinking,12/21/17 11:17,16173614448,158305,42.258784,-71.117741
370,Fruity Tea,77 Harvard,Allston,MA,2134,Active,FS,Eating & Drinking,3/11/19 12:11,16172025189,422247,42.25902,-71.12218
995,Los Antojitos Latin Restaurant,5272 Washington,West Roxbury,MA,2132,Active,FT,Eating & Drinking w/ Take Out,6/15/20 13:36,18572584531,145692,42.25919,-71.15923
624,Fairouz Restaurant,5268 Washington,West Roxbury,MA,2132,Active,FS,Eating & Drinking,7/24/14 11:13,16174690000,145684,42.25931,-71.1589
1627,Target Pizza,5200 Washington,West Roxbury,MA,2132,Active,FT,Eating & Drinking w/ Take Out,2/14/19 9:51,16173234400,157843,42.26113,-71.15683
144,Burger King,892 River,Hyde Park,MA,2136,Active,FS,Eating & Drinking,8/30/18 9:43,14016418014,352207,42.261278,-71.11054
1847,VIVA MI AREPA,5197 Washington,West Roxbury,MA,2132,Active,FT,Eating & Drinking w/ Take Out,12/7/06 13:36,10003237844,156291,42.261378,-71.157279
1908,Yellowbird Chicken,239 Grove,West Roxbury,MA,2132,Active,FT,Eating & Drinking w/ Take Out,5/17/16 8:40,16175127332,158270,42.261598,-71.15733
0,# 7 RESTAURANT,225 Grove,West Roxbury,MA,2132,Active,FT,Eating & Drinking w/ Take Out,3/23/07 15:20,10000000000,156965,42.261873,-71.15741
1032,Maryann's Breakfast & Lunch,223 Grove,West Roxbury,MA,2132,Active,FT,Eating & Drinking w/ Take Out,10/16/07 10:42,16172598217,67418,42.2619,-71.15742
1837,Vikos Pizza & Ribs,847 River,Mattapan,MA,2126,Active,FT,Eating & Drinking w/ Take Out,2/11/14 14:40,16173618456,116744,42.26287,-71.10831
155,BIRCH STREET BISTRO,14 Birch,West Roxbury,MA,2132,Active,FS,Eating & Drinking,12/7/06 13:35,16179225666,15542,42.26346,-71.15857
1051,Mcdonalds,1650 VFW,West Roxbury,MA,2132,Active,FT,Eating & Drinking w/ Take Out,6/27/18 14:21,16174420475,140328,42.264402,-71.16782
1291,Popeyes,1630 VFW,West Roxbury,MA,2132,Active,FT,Eating & Drinking w/ Take Out,2/27/19 9:29,10000000000,140327,42.26502,-71.16767
584,Edu and Dens Bakery,643 River,Mattapan,MA,2126,Active,FS,Eating & Drinking,7/25/18 9:22,16176988800,156261,42.265115,-71.099471
248,Burger King # 3483,1610 VFW,West Roxbury,MA,2132,Active,FT,Eating & Drinking w/ Take Out,2/14/13 14:12,16173238739,157719,42.265889,-71.167951
435,D Coal Pot,984 Hyde Park,Hyde Park,MA,2136,Active,FT,Eating & Drinking w/ Take Out,7/1/13 14:36,18573459512,166488,42.266054,-71.12084
1617,Taco Bell # 29265,1560 VFW,West Roxbury,MA,2132,Active,FT,Eating & Drinking w/ Take Out,4/18/13 7:47,16173272645,140319,42.266743,-71.16857
718,Right Taste Jamaican Restaurant,522 RIVER,MATTAPAN,MA,2126,Active,FS,Eating & Drinking,1/29/09 9:48,16172960607,,42.26696,-71.09481
425,Crab Du Jour,950 Hyde Park,Hyde Park,MA,2136,Active,FT,Eating & Drinking w/ Take Out,1/15/21 12:20,16179109311,156240,42.266967,-71.120553
367,Fritay Restaurant,532 River,Boston,MA,2126,Active,FT,Eating & Drinking w/ Take Out,11/8/18 12:33,18573647362,387345,42.267087,-71.094601
566,DUNKIN DONUTS(WOLCOTT SQ. LLC),942 Hyde Park,Hyde Park,MA,2136,Active,FT,Eating & Drinking w/ Take Out,12/7/06 13:36,16176996069,77703,42.267572,-71.119885
906,Kuizinn Lakay Plus,1672 Blue Hill,Mattapan,MA,2126,Active,FS,Eating & Drinking,5/10/18 10:18,18572058742,16348,42.267624,-71.093257
531,MACUMBA LATINA,477 River,Mattapan,MA,2126,Active,FS,Eating & Drinking,3/6/14 15:21,16178982014,352150,42.268188,-71.093056
143,Burger King,885 CUMMINS ,MATTAPAN,MA,2126,Active,FT,Eating & Drinking w/ Take Out,12/7/06 13:33,16172473763,,42.268217,-71.095781
234,Brother Deli Restaurant,1636 Blue Hill,Mattapan,MA,2126,Active,FS,Eating & Drinking,12/7/06 13:33,16172985224,16341,42.268244,-71.093378
1075,Mello Vibez Restaurant,473 River,Mattapan,MA,2126,Active,FT,Eating & Drinking w/ Take Out,3/26/21 10:56,17747123039,157295,42.268249,-71.093011
1739,The Wright Grill @ Geo. Wright Golf Course,420 West,Hyde Park,MA,2136,Active,FS,Eating & Drinking,3/18/13 9:20,16172013479,147986,42.26841,-71.13288
1045,Mattapan House of Pizza,1621 Blue Hill,Mattapan,MA,2126,Active,FT,Eating & Drinking w/ Take Out,3/9/12 8:24,16172985810,155684,42.268453,-71.094131
279,Dunkin Donuts,1621 Blue Hill,Boston,MA,2126,Active,FT,Eating & Drinking w/ Take Out,6/6/16 9:51,16175017046,386582,42.268597,-71.094131
717,Golden Krust Caribbean Bakery & Grill,1614 Blue Hill,Mattapan,MA,2126,Active,FT,Eating & Drinking w/ Take Out,8/20/15 11:13,17186557878,157942,42.268881,-71.093351
1813,Vegas Restaurant,1592 Blue Hill,Mattapan,MA,2126,Active,FT,Eating & Drinking w/ Take Out,3/7/19 13:27,18572374929,156355,42.269621,-71.093209
355,CHINATOWN EXPRESS,79 River,Mattapan,MA,2126,Active,FT,Eating & Drinking w/ Take Out,8/15/19 8:45,16173981850,155736,42.271418,-71.073999
1884,Wm. E. Carter Ameri. Legion Post 16,1531 Blue Hill,Mattapan,MA,2126,Active,FS,Eating & Drinking,1/3/18 12:24,16176960024,16306,42.27152,-71.09401
1362,RIVER STREET GRILL,73 River,Mattapan,MA,2126,Active,FT,Eating & Drinking w/ Take Out,1/31/20 11:23,16172961813,116713,42.27157,-71.07364
8,320 Cafe,314 Spring,West Roxbury,MA,2132,Active,FS,Eating & Drinking,8/23/17 13:20,13057851745,157799,42.271712,-71.17211
1501,SPUKIES PIZZA RESTAURANT,1159 Washington,Mattapan,MA,2126,Active,FT,Eating & Drinking w/ Take Out,12/7/06 13:34,16174720398,145943,42.272239,-71.068856
479,Domino's Pizza,1514 Blue Hill,Mattapan,MA,2126,Active,FT,Eating & Drinking w/ Take Out,2/3/16 10:23,16172980900,16300,42.27234,-71.09324
1622,Taqueria,2297 Dorchester,Dorchester,MA,2124,Active,FS,Eating & Drinking,2/9/17 10:54,16179083110,48568,42.27236,-71.06824
1465,SIMCO'S RESTAURANT,1509 Blue Hill,Mattapan,MA,2126,Active,FT,Eating & Drinking w/ Take Out,12/7/06 13:34,16178779634,156519,42.272368,-71.09389
538,Dunkin' Donuts,2290 Dorchester,Dorchester,MA,2124,Active,FT,Eating & Drinking w/ Take Out,12/7/06 13:34,10002982304,156550,42.272382,-71.067789
1700,The Ice Creamsmith,2295 Dorchester,Dorchester,MA,2124,Active,FT,Eating & Drinking w/ Take Out,1/29/14 13:29,16172968567,156432,42.272411,-71.068217
656,FLAT BLACK COFFEE CO. LTD.,1170 Washington,Dorchester,MA,2124,Active,FT,Eating & Drinking w/ Take Out,12/7/06 13:35,16177315482,156190,42.272412,-71.068339
1000,Lower Mills Tavern,2269 Dorchester,Dorchester,MA,2124,Active,FS,Eating & Drinking,11/23/15 11:52,16179083110,48563,42.27299,-71.06805
951,The Bowery,2261 Dorchester,Dorchester,MA,2124,Active,FS,Eating & Drinking,6/22/18 12:05,16176982261,351628,42.273187,-71.068011
186,CENTERFOLDS,12 Lagrange,Boston,MA,2116,Active,FS,Eating & Drinking,12/7/06 13:35,16172922600,367816,42.273191,-71.144292
129,Bred,2255 Dorchester,Dorchester,MA,2124,Active,FT,Eating & Drinking w/ Take Out,12/2/14 12:24,10000000000,351621,42.27339,-71.06795
887,Kapow,2257 Dorchester,Dorchester,MA,2124,Active,FT,Eating & Drinking w/ Take Out,6/6/13 8:05,16172967505,156107,42.273398,-71.067948
1233,PATS PIZZA,2254 Dorchester,Dorchester,MA,2124,Active,FT,Eating & Drinking w/ Take Out,12/7/06 13:36,16172989625,156905,42.273506,-71.067541
203,Boston Lodge of Elks #10,1 Morrell,West Roxbury,MA,2132,Active,FS,Eating & Drinking,8/18/20 11:43,16173271618,97474,42.27366,-71.1693
1603,Sweet Life Bakery and Cafe,2243 Dorchester,Dorchester,MA,2124,Active,FS,Eating & Drinking,9/7/12 8:57,10000000000,156564,42.273782,-71.06785
352,Flaming Grill & Buffet,950 American Legion,Roslindale,MA,2131,Active,FS,Eating & Drinking,12/21/15 12:34,16463714152,347022,42.274993,-71.11478
1029,Wing Stop,950 American Legion,Roslindale,MA,2131,Active,FS,Eating & Drinking,9/28/20 13:36,16173259464,347022,42.274993,-71.11478
508,DUNKIN (STATION DONUTS),4610 Washington,Roslindale,MA,2131,Active,FT,Eating & Drinking w/ Take Out,12/7/06 13:35,17813440172,157298,42.275401,-71.139268
478,Domino's,4640 Washington,Roslindale,MA,2131,Active,FT,Eating & Drinking w/ Take Out,2/20/19 7:33,16173230525,145317,42.275474,-71.139042
451,Johnny's Takeaway,168 Spring,West Roxbury,MA,2132,Active,FT,Eating & Drinking w/ Take Out,11/15/17 11:01,17742700448,352347,42.27578,-71.16685
249,Burger King # 3531,4594 Washington,Roslindale,MA,2131,Active,FT,Eating & Drinking w/ Take Out,2/14/13 14:17,16173238739,158174,42.275977,-71.139161
1757,Tony's Place,186 Baker,West Roxbury,MA,2132,Active,FT,Eating & Drinking w/ Take Out,12/7/06 13:33,16173233550,7658,42.27601,-71.16725
446,Jim Roche Ice Arena,1275 VFW,Boston,MA,2132,Active,FS,Eating & Drinking,9/14/07 8:43,16173239512,402434,42.276117,-71.173051
1169,NICK'S,4590 Washington,Roslindale,MA,2131,Active,FT,Eating & Drinking w/ Take Out,12/7/06 13:34,16173278199,145305,42.27626,-71.13884
564,Dunkin' Donuts(C.A. Donuts),155 Spring,West Roxbury,MA,2132,Active,FT,Eating & Drinking w/ Take Out,12/7/06 13:34,10000000000,129544,42.27646,-71.16677
1507,St. George Orthodox Church,55 Emmonsdale,West Roxbury,MA,2132,Active,FS,Eating & Drinking,11/22/16 9:59,16173230323,53757,42.27723,-71.15163
46,Al-Wadi Restaurant,1249 VFW,West Roxbury,MA,2132,Active,FS,Eating & Drinking,7/28/10 8:29,16173233236,140286,42.27724,-71.17261
1761,Top of The Hill,1357 Blue Hill,Mattapan,MA,2126,Active,FT,Eating & Drinking w/ Take Out,12/12/06 11:20,16179747106,156258,42.277526,-71.093761
189,Bonapita,77 Spring,West Roxbury,MA,2132,Active,FS,Eating & Drinking,7/2/18 10:33,14014515538,341216,42.277765,-71.16403
303,CARNEY HOSPITAL,2100 Dorchester,Dorchester,MA,2124,Active,FS,Eating & Drinking,11/24/10 10:47,16172964000,48511,42.278028,-71.066046
555,DUNKIN DONUTS (CARNEY),2100 Dorchester,Dorchester,MA,2124,Active,FT,Eating & Drinking w/ Take Out,12/7/06 13:35,17819536925,48511,42.278028,-71.066046
1389,Safari African Restaurant,1336 Blue Hill,Mattapan,MA,2126,Active,FS,Eating & Drinking,7/9/15 14:14,16172960011,16241,42.27806,-71.09314
113,Bani Restaurant,4541 Washington,Roslindale,MA,2131,Active,FS,Eating & Drinking,12/7/06 13:36,16174690294,145300,42.278345,-71.137197
23,AFC Sushi @Star Market #3577,75 Spring,West Roxbury,MA,2132,Active,FT,Eating & Drinking w/ Take Out,1/31/18 11:31,16173270564,129598,42.27871,-71.1633
1282,Pleasant Cafe,4511 Washington,Roslindale,MA,2131,Active,FS,Eating & Drinking,12/7/06 13:33,16173232111,145298,42.27873,-71.13676
925,La Lechonera Restaurant,342 Cummins,Roslindale,MA,2131,Active,FT,Eating & Drinking w/ Take Out,11/24/15 12:42,16173230311,44868,42.2788,-71.11601
476,La Taqueria Taco Bar & Grill,632 Hyde Park,Roslindale,MA,2131,Active,FT,Eating & Drinking w/ Take Out,11/7/16 13:02,16179428117,437499,42.278806,-71.118962
538,Mandarin House,633 Hyde Park,Roslindale,MA,2131,Active,FT,Eating & Drinking w/ Take Out,12/12/16 12:26,16173273131,351811,42.278866,-71.119396
1322,R & S JAMAICAN RESTAURANT,630 Hyde Park,Roslindale,MA,2131,Active,FS,Eating & Drinking,1/2/20 13:05,16174774292,77474,42.2789,-71.1186
248,Devine Merci Restaurant,1296 Blue Hill,Mattapan,MA,2126,Active,FS,Eating & Drinking,8/2/17 8:25,16172961300,352446,42.279367,-71.092751
264,Cafe Juice Up,1290 Blue Hill,Mattapan,MA,2126,Active,FT,Eating & Drinking w/ Take Out,8/13/19 8:02,17812670173,16226,42.279598,-71.092686
937,Lani's Pizza,1288 Blue Hill,Mattapan,MA,2126,Active,FT,Eating & Drinking w/ Take Out,2/24/16 10:21,16175866883,16225,42.279782,-71.09262
641,P & R ICE CREAM,1284 BLUE HILL ,MATTAPAN,MA,2126,Active,FT,Eating & Drinking w/ Take Out,12/7/06 13:34,16172960922,,42.27984,-71.0926
1307,Pu Pu Restaurant,2060 Centre,West Roxbury,MA,2132,Active,FT,Eating & Drinking w/ Take Out,1/24/18 13:18,16173233526,27787,42.27986,-71.15831
59,Anna Hand Cut Donuts,2056 Centre,West Roxbury,MA,2132,Active,FS,Eating & Drinking,12/7/06 13:33,16173232680,157110,42.280014,-71.158191
1168,Nicholas Sub & Pizza Shop,600 Hyde Park,Roslindale,MA,2131,Active,FT,Eating & Drinking w/ Take Out,6/22/09 11:34,16173277728,156517,42.280027,-71.118658
649,PARKWAY LITTLE LEAGUE STAND,2 Dow,West Roxbury,MA,2132,Active,FS,Eating & Drinking,4/12/07 14:16,10000000000,422665,42.280029,-71.166841
552,Dunkin Donuts (895 Morton St.),895 Morton,Mattapan,MA,2126,Active,FT,Eating & Drinking w/ Take Out,3/8/12 14:22,16175411911,97821,42.28044,-71.084139
660,Pelloma Nigerian Cuisine,924 Morton,Dorchester,MA,2124,Active,FT,Eating & Drinking w/ Take Out,3/25/21 15:23,16173159115,354377,42.280703,-71.082956
412,CORRIB PUB AND RESTAURANT,2030 Centre,West Roxbury,MA,2132,Active,FS,Eating & Drinking,12/7/06 13:34,16174694177,158200,42.280727,-71.157951
92,Bitez,914 Morton,Mattapan,MA,2126,Active,FT,Eating & Drinking w/ Take Out,1/13/22 11:26,16178206485,351026,42.280737,-71.083141
587,MORTON'S PIZZERIA,896 Morton,Dorchester,MA,2124,Active,FS,Eating & Drinking,12/19/13 8:36,16172871127,351025,42.28089,-71.084
172,Blue Mountain Jamaican Restaurant,884 Morton,Dorchester,MA,2124,Active,FS,Eating & Drinking,7/9/19 14:11,16175952996,97818,42.281,-71.08457
677,Pit Stop Barbecue,888 Morton,Mattapan,MA,2126,Active,FT,Eating & Drinking w/ Take Out,5/27/08 9:58,16174360485,,42.281007,-71.084071
1549,STEFANO'S PIZZA,863 Washington,Dorchester,MA,2124,Active,FT,Eating & Drinking w/ Take Out,7/17/12 8:26,16172822691,157388,42.281561,-71.0713
384,Golden House,4403 Washington,Boston,MA,2131,Active,FT,Eating & Drinking w/ Take Out,10/8/19 15:03,16173238239,400279,42.281727,-71.133454
830,IRIE JAMAICAN STYLE RESTAURANT,851 Washington,Dorchester,MA,2124,Active,FT,Eating & Drinking w/ Take Out,12/22/14 14:07,16175943426,146202,42.281873,-71.071408
510,Lucy's American Tavern,11 Granite,Dorchester,MA,2124,Active,FS,Eating & Drinking,4/13/16 14:13,16176998979,419668,42.282274,-71.05584
586,Morning Star Baptist Church,1257 Blue Hill,MATTAPAN,MA,2126,Active,FS,Eating & Drinking,12/7/06 8:58,16172980278,,42.28229,-71.092425
1057,Mcdonalds,511 Gallivan,Dorchester,MA,2124,Active,FT,Eating & Drinking w/ Take Out,9/2/16 8:40,16172883468,62336,42.28231,-71.05511
665,FLORIAN RESTAURANT,55 Hallet,Dorchester,MA,2124,Active,FS,Eating & Drinking,12/7/06 13:34,16172886666,158049,42.282376,-71.047658
1063,McDonald's,718 American Legion,Roslindale,MA,2131,Active,FT,Eating & Drinking w/ Take Out,11/9/18 11:06,16174424349,3182,42.2828,-71.1131
1762,Top Shelf Cookies,516 Gallivan,Dorchester,MA,2124,Active,FT,Eating & Drinking w/ Take Out,1/19/21 9:34,18573210446,156552,42.282928,-71.055559
299,Caribbean Flavors,1210 Blue Hill,Mattapan,MA,2126,Active,FT,Eating & Drinking w/ Take Out,11/1/19 13:32,16175067875,157320,42.282979,-71.091349
352,China Sky Restaurant,782 Adams,Dorchester,MA,2124,Active,FT,Eating & Drinking w/ Take Out,12/7/06 13:33,16172824790,157063,42.283093,-71.055609
694,PS Gourmet Coffee,782 Adams,Boston,MA,2124,Active,FT,Eating & Drinking w/ Take Out,9/30/20 10:01,16172695622,383125,42.283097,-71.055601
614,Erie Pub,791 Adams,Dorchester,MA,2124,Active,FS,Eating & Drinking,12/7/06 13:33,16174360088,975,42.28316,-71.05602
741,GREENHILLS BAKERY,780 Adams,Dorchester,MA,2122,Active,FT,Eating & Drinking w/ Take Out,12/7/06 13:35,16178258188,967,42.28327,-71.05557
578,Molinari's,789 Adams,Dorchester,MA,2124,Active,FS,Eating & Drinking,4/26/16 10:24,10000000000,352721,42.283304,-71.055915
685,Popeyes,710 American Legion,Roslindale,MA,2131,Active,FT,Eating & Drinking w/ Take Out,8/31/15 10:23,16144778252,352569,42.283334,-71.112034
480,LAS PALMAS RESTAURANT,4337A Washington,Roslindale,MA,2131,Active,FS,Eating & Drinking,12/21/16 8:28,16173233339,351860,42.283337,-71.131721
478,Landmark Public House,772 Adams,Dorchester,MA,2124,Active,FS,Eating & Drinking,7/12/16 15:25,16173083186,383124,42.283437,-71.05552
869,Joseph's Pizza & Sub Shop,1200 Blue Hill,Mattapan,MA,2126,Active,FT,Eating & Drinking w/ Take Out,12/7/06 13:34,16172980065,156568,42.283445,-71.091398
828,Invi Restaurant,761 Morton,Mattapan,MA,2126,Active,FT,Eating & Drinking w/ Take Out,1/23/18 11:50,16173223716,97788,42.283478,-71.089409
450,Delini Gelato,5 Bellevue,West Roxbury,MA,2132,Active,FT,Eating & Drinking w/ Take Out,11/15/19 12:29,17742082810,13966,42.283522,-71.15661
351,China Sea,1194 Blue Hill,Mattapan,MA,2126,Active,FT,Eating & Drinking w/ Take Out,10/14/20 13:18,16172982421,16185,42.28358,-71.09136
1868,West Napoli Pizza,1946 Centre,West Roxbury,MA,2132,Active,FT,Eating & Drinking w/ Take Out,12/7/06 13:35,16173257909,27764,42.28358,-71.15676
506,DUNKIN',684 American Legion,Roslindale,MA,2131,Active,FT,Eating & Drinking w/ Take Out,12/7/06 13:35,10005243853,156647,42.283596,-71.112514
350,Five Star Pizza,616 Gallivan,Boston,MA,2124,Active,FT,Eating & Drinking w/ Take Out,3/31/17 11:06,16178255554,383313,42.283617,-71.050741
143,Best Fried Chicken,1198 Blue Hill,Mattapan,MA,2126,Active,FT,Eating & Drinking w/ Take Out,4/30/21 15:46,16173223035,156964,42.283694,-71.091958
35,ALLIS ROTI + MEAT MARKET,1188 Blue Hill,Mattapan,MA,2126,Active,FT,Eating & Drinking w/ Take Out,12/7/06 13:34,16172989850,16183,42.28377,-71.09129
924,La La Restaurant,792 Washington,Dorchester,MA,2124,Active,FT,Eating & Drinking w/ Take Out,3/25/16 14:48,16172658171,158320,42.283811,-71.07134
310,DUNKIN DONUTS/GALLIVAN,719 Gallivan,Dorchester,MA,2122,Active,FT,Eating & Drinking w/ Take Out,12/7/06 13:35,17818285896,351817,42.283825,-71.046129
963,The Industry,750 Adams,Boston,MA,2122,Active,FS,Eating & Drinking,1/6/17 11:12,16172857160,378686,42.283997,-71.055271
213,Coffee Cup (Ashmont Station southbound side),1906 Dorchester,Dorchester,MA,2124,Active,FT,Eating & Drinking w/ Take Out,3/15/13 9:05,18572370105,351620,42.284114,-71.064529
720,Ripple Cafe,1906 Dorchester,Dorchester,MA,2124,Active,FS,Eating & Drinking,2/6/19 13:16,15088130028,,42.284114,-71.064529
1777,Triple Eatery,77 Cummins,Roslindale,MA,2131,Active,FT,Eating & Drinking w/ Take Out,2/23/15 11:49,16173253388,44982,42.2845,-71.12559
974,Little Caesars,628 American Legion,Roslindale,MA,2131,Active,FT,Eating & Drinking w/ Take Out,10/25/13 10:19,18572733250,172176,42.284551,-71.110244
1224,PAPA GINO'S,748 Gallivan,Dorchester,MA,2122,Active,FT,Eating & Drinking w/ Take Out,12/30/19 10:35,16173644300,156435,42.284619,-71.045761
1331,Regal,686 Morton,Dorchester,MA,2126,Active,FT,Eating & Drinking w/ Take Out,12/7/06 13:34,16174369458,158008,42.284737,-71.092088
1251,Perla Del Sur Quintanilla,454 Hyde Park,Roslindale,MA,2131,Active,FS,Eating & Drinking,11/4/09 11:18,16174778668,77371,42.28501,-71.11866
281,Dunkin Donuts,1931 DORCHESTER ,DORCHESTER,MA,2124,Active,FT,Eating & Drinking w/ Take Out,12/7/06 13:34,10002963737,,42.285017,-71.064841
159,BK's Pub,4272 Washington,Roslindale,MA,2131,Active,FS,Eating & Drinking,12/7/06 13:33,16173250928,158144,42.285083,-71.129349
653,FLAMES RESTAURANT,663 Morton,Mattapan,MA,2126,Active,FT,Eating & Drinking w/ Take Out,12/7/06 13:35,16175949827,97755,42.28521,-71.09331
864,JOHNNY'S PIZZA & SUBS,1917 Dorchester,Dorchester,MA,2124,Active,FT,Eating & Drinking w/ Take Out,12/9/14 13:17,16172656660,156515,42.285213,-71.064638
912,Tavolo,1917 DORCHESTER,DORCHESTER,MA,2124,Active,FS,Eating & Drinking,10/22/07 12:18,16174365076,,42.285237,-71.064641
472,La Esquina Sandwiches,1151B Blue Hill,Dorchester,MA,2124,Active,FT,Eating & Drinking w/ Take Out,11/12/21 15:23,10000000000,441941,42.285243,-71.091435
339,CHEZ-VOUS SKATING RINK,11 Rhoades,Dorchester,MA,2124,Active,FS,Eating & Drinking,12/7/06 13:34,16178256877,115584,42.28536,-71.09219
1867,West Garden,1890 Centre,West Roxbury,MA,2132,Active,FT,Eating & Drinking w/ Take Out,10/9/19 9:06,16175951379,163089,42.285377,-71.155777
1482,Somtum Modern Thai Cuisine,1894 Centre,West Roxbury,MA,2132,Active,FT,Eating & Drinking w/ Take Out,10/25/17 10:13,10000000000,155922,42.285385,-71.155841
1306,PS Coffee,4252 Washington,Roslindale,MA,2131,Active,FT,Eating & Drinking w/ Take Out,10/26/15 12:17,16172695622,157235,42.285411,-71.128978
1464,SIMCO'S INC.,679 Canterbury,Roslindale,MA,2131,Active,FT,Eating & Drinking w/ Take Out,12/7/06 13:35,16178779634,25482,42.28542,-71.11
610,Nick's Pizza and Seafood,1143 Blue Hill,DORCHESTER,MA,2124,Active,FT,Eating & Drinking w/ Take Out,1/7/08 9:35,16172828805,,42.28549,-71.091346
738,Greek Pizza,1132 Blue Hill,Dorchester,MA,2124,Active,FT,Eating & Drinking w/ Take Out,12/28/21 14:37,16174360000,155807,42.285528,-71.090708
893,Kentucky Fried Chicken,625 American Legion,Roslindale,MA,2131,Active,FT,Eating & Drinking w/ Take Out,3/25/11 14:11,17819820755,3173,42.28559,-71.11089
193,Chilacates,4257 Washington,Boston,MA,2131,Active,FT,Eating & Drinking w/ Take Out,7/15/20 14:53,16179095341,400037,42.285617,-71.129291
394,Comella's,1882 Centre,West Roxbury,MA,2132,Active,FT,Eating & Drinking w/ Take Out,1/31/07 14:56,16173278600,27748,42.28567,-71.15548
1724,The Real Deal,1882 Centre,West Roxbury,MA,2132,Active,FS,Eating & Drinking,12/7/06 13:36,16175154336,27748,42.28567,-71.15548
1082,Mi Finca Mexican Food,4249 Washington,Roslindale,MA,2131,Active,FT,Eating & Drinking w/ Take Out,7/24/20 15:42,16173252885,157166,42.285686,-71.129179
937,Ten Second Noodles,60 Beach,Boston,MA,2111,Active,FS,Eating & Drinking,4/30/21 9:31,17818882119,351819,42.285714,-71.148207
601,El Recreo Coffee & Roastene,1872 Centre,West Roxbury,MA,2132,Active,FT,Eating & Drinking w/ Take Out,8/15/14 11:57,16177557018,163087,42.285743,-71.155382
184,BON APPETIT RESTAURANT,1138 Blue Hill,Dorchester,MA,2124,Active,FT,Eating & Drinking w/ Take Out,12/7/06 13:34,16178255544,157568,42.285777,-71.09125
334,Eurest Dining Services@Mass Biologic Cafe,460 WALK HILL,Mattapan/,MA,2126,Active,FS,Eating & Drinking,5/5/10 9:02,16175265403,0,42.2858,-71.102028
1573,Subway,4238 Washington,Roslindale,MA,2131,Active,FT,Eating & Drinking w/ Take Out,7/30/11 13:53,14016516996,171262,42.28585,-71.128341
1543,STASH'S ROSLINDALE,330 Belgrade,Roslindale,MA,2131,Active,FT,Eating & Drinking w/ Take Out,5/23/14 13:06,16173271300,157181,42.285901,-71.14511
817,Imperial Kitchen,50 Corinth,Roslindale,MA,2131,Active,FS,Eating & Drinking,9/6/12 15:19,16173272249,155709,42.285933,-71.129089
447,Jimmie's Cafe,48 Corinth,Boston,MA,2131,Active,FT,Eating & Drinking w/ Take Out,2/20/18 15:05,18573346955,400069,42.285987,-71.129141
1377,Rox Diner,1881 Centre,West Roxbury,MA,2132,Active,FT,Eating & Drinking w/ Take Out,7/19/07 16:49,16173271909,157834,42.286043,-71.155668
81,ASHMONT GRILL,555 Talbot,Dorchester,MA,2124,Active,FS,Eating & Drinking,12/7/06 13:36,18254300000,156895,42.286091,-71.064728
586,Effie's Kitchen,37 Poplar,Roslindale,MA,2131,Active,FT,Eating & Drinking w/ Take Out,10/1/15 11:16,16179534825,158211,42.286098,-71.129018
652,FLAMES RESTAURANT,1 Peabody,Dorchester,MA,2124,Active,FS,Eating & Drinking,11/20/18 9:55,16175949827,108711,42.28611,-71.06369
1263,Phuket Thai  Restaurant,1852 Centre,West Roxbury,MA,2132,Active,FS,Eating & Drinking,5/10/07 9:45,16174695200,27742,42.28611,-71.15439
1192,Obosa Foods,146 Belgrade,Roslindale,MA,2131,Active,FS,Eating & Drinking,11/20/19 12:18,16173727676,156858,42.286122,-71.136731
173,BLUE STAR RESTAURANT,11 Corinth,Roslindale,MA,2131,Active,FS,Eating & Drinking,12/7/06 13:35,16173239638,42862,42.28641,-71.13043
1869,WESTBURY RESTAURANT,1836 Centre,West Roxbury,MA,2132,Active,FS,Eating & Drinking,12/7/06 13:34,16174698186,155803,42.286422,-71.15394
733,Rutchada Thai Cuisine,153 Belgrade,Boston,MA,2131,Active,FS,Eating & Drinking,9/10/20 9:10,16179225079,399725,42.286447,-71.136971
786,SOPHIA'S GROTTO,18 Corinth,Roslindale,MA,2131,Active,FS,Eating & Drinking,12/7/06 13:36,16173235217,351680,42.286485,-71.129959
754,Shaking Seafood,19 Poplar,Roslindale,MA,2131,Active,FS,Eating & Drinking,9/13/17 10:59,19172542025,399785,42.286498,-71.12901
1126,Mud House,389 Neponset,Dorchester,MA,2122,Active,FS,Eating & Drinking,3/29/13 8:28,16172820024,100879,42.28651,-71.04467
600,Neponset Cafe,400 Neponset,Dorchester,MA,2122,Active,FT,Eating & Drinking w/ Take Out,7/11/18 13:51,16175068008,351027,42.286517,-71.043831
1841,Village Sushi & Grill,10 Corinth,Roslindale,MA,2131,Active,FS,Eating & Drinking,5/9/07 13:41,16173637874,42861,42.2866,-71.13017
956,the dorset,367 Neponset,Dorchester,MA,2122,Active,FS,Eating & Drinking,10/15/15 11:38,16175925323,354393,42.286717,-71.045131
1730,The Square Root,2 Corinth,Roslindale,MA,2131,Active,FS,Eating & Drinking,2/12/18 15:49,16172838793,163900,42.286743,-71.130442
449,Delicious Yogurt,4198 Washington,Roslindale,MA,2131,Active,FT,Eating & Drinking w/ Take Out,2/19/14 8:32,10000000000,145150,42.28683,-71.12736
494,Dragon Chef East,4198 Washington,Roslindale,MA,2131,Active,FS,Eating & Drinking,5/16/08 9:38,16173273650,145150,42.28683,-71.12736
467,Distraction Brewing,2 Belgrade,Roslindale,MA,2131,Active,FS,Eating & Drinking,9/18/18 14:00,17818208863,340955,42.286857,-71.130215
327,Emerald Society .,10 Birch,Roslindale,MA,2131,Active,FS,Eating & Drinking,2/16/21 11:31,16177497906,351677,42.28693,-71.129707
1188,Nu Flav Restaurant,1098 Blue Hill,Dorchester,MA,2124,Active,FS,Eating & Drinking,4/1/13 12:49,17873080321,16149,42.28695,-71.09021
446,Delfino Restaurant,754 South,Roslindale,MA,2131,Active,FS,Eating & Drinking,12/7/06 13:35,16173646738,128944,42.28702,-71.12948
1020,WEST,1732 CENTRE,WEST ROXBURY,MA,2132,Active,FS,Eating & Drinking,12/7/06 13:35,16175244394,,42.287097,-71.149771
1026,Maria's Kitchen,1819 Centre,West Roxbury,MA,2132,Active,FS,Eating & Drinking,4/12/17 14:11,16175933959,27728,42.287115,-71.153601
1209,ONLY ONE JAMAICAN RESTAURANT,160 Norfolk,Dorchester,MA,2124,Active,FT,Eating & Drinking w/ Take Out,12/7/06 13:35,16178220444,156224,42.287159,-71.07862
10,753 South,749 South,Roslindale,MA,2131,Active,FS,Eating & Drinking,4/21/17 13:23,16176346738,128941,42.28716,-71.12912
1367,ROCHE BROS. SUPERMARKET,1800 Centre,West Roxbury,MA,2132,Active,FS,Eating & Drinking,12/7/06 13:35,16174695747,157307,42.287186,-71.152539
1536,Starbucks Coffee Co. #7808,1804 Centre,West Roxbury,MA,2132,Active,FT,Eating & Drinking w/ Take Out,3/31/07 9:10,10000000000,27724,42.287192,-71.152571
1440,Shanti Boston,4197 Washington,Roslindale,MA,2131,Active,FS,Eating & Drinking,2/21/13 11:16,16173253900,331492,42.28723,-71.12763
404,Happy Lamb Mongolian Hot Pot,693 Washington,Boston,MA,2111,Active,FS,Eating & Drinking,4/25/17 12:08,18586882737,358901,42.28733,-71.07145
1720,The Porter Cafe,1723 Centre,West Roxbury,MA,2132,Active,FS,Eating & Drinking,1/28/11 9:39,10000000000,27707,42.28738,-71.1492
1142,Napper Tandys,4187 Washington,Roslindale,MA,2131,Active,FS,Eating & Drinking,6/8/12 9:30,16173238400,145146,42.287388,-71.127396
785,Himayalan Bistro,1735 Centre,West Roxbury,MA,2132,Active,FS,Eating & Drinking,12/7/06 13:36,10003253500,157550,42.287452,-71.14975
1661,Thai Spice,1745 Centre,West Roxbury,MA,2132,Active,FT,Eating & Drinking w/ Take Out,1/15/13 14:57,16174690002,156249,42.287454,-71.150249
994,Los Amigos Mexican Grill,1741 Centre,West Roxbury,MA,2132,Active,FT,Eating & Drinking w/ Take Out,5/24/11 14:15,10000000000,27711,42.28746,-71.15016
363,Christos Pizzeria,1761 Centre,West Roxbury,MA,2132,Active,FT,Eating & Drinking w/ Take Out,9/25/20 12:30,16173279047,157434,42.28751,-71.150689
861,Stardust,1753 Centre,West Roxbury,MA,2132,Active,FT,Eating & Drinking w/ Take Out,4/8/19 11:28,16178694242,351872,42.287515,-71.150559
71,Banh Mi Oi,1759 Centre,West Roxbury,MA,2132,Active,FT,Eating & Drinking w/ Take Out,6/23/20 11:26,16173250946,351854,42.287532,-71.15056
661,Penang,687 Washington,Boston,MA,2116,Active,FS,Eating & Drinking,3/1/12 13:26,16174516373,343264,42.28758,-71.07148
1511,Stalex Pizza,140 Norfolk,Dorchester,MA,2124,Active,FT,Eating & Drinking w/ Take Out,11/30/21 13:28,16173253955,103177,42.28779,-71.07781
1375,ROSLINDALE HOUSE OF PIZZA,4168 Washington,Roslindale,MA,2131,Active,FT,Eating & Drinking w/ Take Out,12/7/06 13:34,17812547749,157416,42.287818,-71.126399
289,Dunkin Donuts,4175 WASHINGTON,ROSLINDALE,MA,2131,Active,FT,Eating & Drinking w/ Take Out,12/7/06 13:33,16173239851,,42.287895,-71.127034
934,Teazzi Tea Shop - Boston,31 Harrison,Boston,MA,2111,Active,FT,Eating & Drinking w/ Take Out,9/28/21 11:00,15854516393,0,42.288357,-71.119771
189,CHECKMATE CAFE,900 South,Roslindale,MA,2131,Active,FT,Eating & Drinking w/ Take Out,12/29/15 9:44,16173275730,419718,42.288467,-71.134771
793,Hong Kong 888 Cafe,888 South,Roslindale,MA,2132,Active,FT,Eating & Drinking w/ Take Out,7/6/12 10:33,16173238122,169825,42.28857,-71.134317
740,Green T Coffee Shop,873 South,Roslindale,MA,2131,Active,FT,Eating & Drinking w/ Take Out,7/1/20 14:45,16173905777,128993,42.28895,-71.13389
1629,Taste of Eden,38 Norfolk,Dorchester,MA,2124,Active,FT,Eating & Drinking w/ Take Out,4/4/07 15:17,10000000000,158241,42.289223,-71.07283
319,El Barrio Mexican Grill,1782 Dorchester,Dorchester,MA,2124,Active,FT,Eating & Drinking w/ Take Out,12/10/13 15:35,16172821656,351617,42.289757,-71.062961
116,Boston Fried Chicken,998 Blue Hill,Dorchester,MA,2124,Active,FS,Eating & Drinking,3/7/18 12:06,16174360077,351901,42.28987,-71.089318
1758,Top Griyo Restaurant,994 Blue Hill,Dorchester,MA,2124,Active,FT,Eating & Drinking w/ Take Out,8/31/21 11:15,16178226985,156769,42.289902,-71.089261
462,DIMITRIOS HOUSE OF PIZZA,1750 Dorchester,Dorchester,MA,2124,Active,FT,Eating & Drinking w/ Take Out,12/7/06 13:34,16178253086,157311,42.290228,-71.062881
1062,McDonald's,607 Washington,Dorchester,MA,2124,Active,FT,Eating & Drinking w/ Take Out,4/25/18 12:46,16174420475,171202,42.290394,-71.07187
328,CHARLIE'S HOUSE OF PIZZA,1740 Dorchester,Dorchester,MA,2124,Active,FS,Eating & Drinking,9/5/19 14:55,16719032203,48399,42.2907,-71.06272
1045,Zia Gianna Italian Bakery & Caffe,1739 Dorchester,Dorchester,MA,2124,Active,FS,Eating & Drinking,11/6/17 11:58,16177559940,351039,42.291067,-71.063021
1046,Ziggy's,583 Washington,Brighton,MA,2135,Active,FT,Eating & Drinking w/ Take Out,10/23/20 12:17,16172911991,351055,42.291107,-71.072011
1027,Windy City Pizza,960 William T Morrissey,Boston,MA,2122,Active,FT,Eating & Drinking w/ Take Out,9/23/19 15:50,16172656666,379519,42.291673,-71.046857
746,Guira and Tambora Restaurant,4014 Washington,Roslindale,MA,2131,Active,FS,Eating & Drinking,4/30/09 11:27,16173277555,145066,42.291827,-71.122157
1342,Restaurant Y Cafeteria Los Nietos,962 Blue Hill,Dorchester,MA,2124,Active,FT,Eating & Drinking w/ Take Out,5/17/17 10:08,16178226969,156966,42.291968,-71.08805
73,Arboretum Grill,4021 Washington,Roslindale,MA,2131,Active,FS,Eating & Drinking,10/14/11 8:30,16173239100,145067,42.29201,-71.12244
690,Fresh Food Generation,191 Talbot,Dorchester,MA,2124,Active,FT,Eating & Drinking w/ Take Out,1/19/21 14:47,16176027185,133673,42.292019,-71.079137
1211,ORIENTAL HOUSE,560 Washington,Dorchester,MA,2124,Active,FT,Eating & Drinking w/ Take Out,12/7/06 13:35,16172829329,156004,42.292072,-71.071521
198,Boston Harbor Distillery,12R Ericsson,Dorchester,MA,2122,Active,FS,Eating & Drinking,6/25/21 11:28,17817101720,165026,42.292109,-71.041037
1815,VENEZIA RESTAURANT (HARBOR LIGHTS),20 R Ericsson,Dorchester,MA,2122,Active,FS,Eating & Drinking,4/17/07 14:05,10000000000,54165,42.292133,-71.040224
300,Caribe Restaurant,559 Washington,Dorchester,MA,2124,Active,FT,Eating & Drinking w/ Take Out,12/7/06 13:36,16174367351,146110,42.292205,-71.071965
477,Domino's,4000 Washington,Roslindale,MA,2131,Active,FT,Eating & Drinking w/ Take Out,2/20/19 7:30,16173186100,145054,42.29232,-71.12155
866,Stop & Shop/Dunkin Donuts #18,535 Freeport,DORCHESTER,MA,2122,Active,FS,Eating & Drinking,11/15/07 8:50,16173232160,,42.292487,-71.048881
1024,Mangu Dominican Bistro,264 Hyde Park,Jamaica Plain,MA,2130,Active,FS,Eating & Drinking,5/5/21 8:22,16179875331,156909,42.292509,-71.117519
647,PAPA JOHNS PIZZA,533 Washington,Brighton,MA,2135,Active,FT,Eating & Drinking w/ Take Out,2/12/14 14:21,16172540111,351932,42.29291,-71.07209
153,BILLY'S TEXAS B.B.Q.,530 Washington,Dorchester,MA,2124,Active,FS,Eating & Drinking,12/7/06 13:34,16172886161,146103,42.29298,-71.07162
353,China Station Restaurant,530 Washington,Dorchester,MA,2124,Active,FT,Eating & Drinking w/ Take Out,3/28/12 10:02,16172658688,146103,42.29298,-71.07162
425,Hoshi Ya,529 Washington,Brighton,MA,2135,Active,FT,Eating & Drinking w/ Take Out,1/16/19 14:17,16172548808,351536,42.29307,-71.07209
1574,Subway,875 William T Morrissey,Dorchester,MA,2122,Active,FS,Eating & Drinking,8/4/14 11:09,14012864870,155700,42.293573,-71.047878
889,Kelleher's Bar and Grille,1410 Centre,Roslindale,MA,2131,Active,FS,Eating & Drinking,10/27/09 8:51,16173251222,27568,42.293937,-71.13618
407,Harry's All American Breakfast,1410 Centre,Boston,MA,2131,Active,FS,Eating & Drinking,12/27/18 10:46,16173279256,399207,42.293957,-71.136181
181,CARVER DEN,80 TALBOT ,DORCHESTER,MA,2124,Active,FS,Eating & Drinking,12/7/06 13:36,16175923845,,42.293973,-71.083711
378,George Howell Coffee,505 Washington,Boston,MA,2111,Active,FS,Eating & Drinking,8/11/15 10:29,19786359033,350866,42.294023,-71.07211
732,Ruka Restobar Nikkei,505 Washington,Boston,MA,2111,Active,FS,Eating & Drinking,6/8/16 10:32,18574450202,350866,42.294023,-71.07211
959,The Godfrey Hotel Boston,505 Washington,Boston,MA,2111,Active,FS,Eating & Drinking,10/8/15 9:07,16176342959,350866,42.294023,-71.07211
1040,YUCATAN TACOS,1419 CENTRE,WEST ROXBURY,MA,2132,Active,FS,Eating & Drinking,12/7/06 13:35,16173237555,,42.294037,-71.136811
14,A & N PIZZA,1409 Centre,West Roxbury,MA,2132,Active,FT,Eating & Drinking w/ Take Out,12/7/06 13:36,16173232211,27566,42.29413,-71.13674
619,Essential Herb & Juice Cafe,501B Washington,Dorchester,MA,2124,Active,FT,Eating & Drinking w/ Take Out,9/10/20 8:39,16175068302,332483,42.29415,-71.07213
700,Raphael Caribbean Cuisine,487 Washington,Dorchester,MA,2124,Active,FS,Eating & Drinking,4/7/14 14:14,16175067875,352664,42.294636,-71.072181
100,Blue Nile,389 Centre,Jamaica Plain,MA,2130,Active,FS,Eating & Drinking,10/5/16 13:44,16175226453,352030,42.29479,-71.05714
1673,THE BOSTON ICE CREAM FACTORY,777 William T Morrissey,Dorchester,MA,2122,Active,FT,Eating & Drinking w/ Take Out,12/7/06 13:35,16174362189,156414,42.294809,-71.048338
879,SUN PIZZA.,870 BLUE HILL ,DORCHESTER,MA,2124,Active,FT,Eating & Drinking w/ Take Out,12/7/06 13:34,10000000000,,42.295067,-71.087539
891,Kentucky Fried Chicken,465 Washington,Dorchester,MA,2124,Active,FT,Eating & Drinking w/ Take Out,3/25/11 14:33,17819820755,158171,42.295093,-71.072339
1207,On Fire Nutrition,411 Adams,Dorchester,MA,2122,Active,FT,Eating & Drinking w/ Take Out,6/23/21 12:31,18579392728,714,42.29524,-71.0564
1438,Shaking Seafood,1616 Dorchester,Dorchester,MA,2122,Active,FT,Eating & Drinking w/ Take Out,12/8/20 14:10,10000000000,48361,42.2954,-71.06139
1313,Puritan Restaurant,735 William T Morrissey,Dorchester,MA,2122,Active,FS,Eating & Drinking,2/1/13 8:01,16178256676,155698,42.295415,-71.048888
543,Dunkin' Donuts,7 Walk Hill,Jamaica Plain,MA,2130,Active,FT,Eating & Drinking w/ Take Out,12/7/06 13:34,10009831902,141731,42.29556,-71.1161
283,Dunkin Donuts,210 HARVARD,ALLSTON,MA,2134,Active,FT,Eating & Drinking w/ Take Out,3/26/09 13:25,16172323402,,42.295587,-71.085011
988,Tostado LLC,3878 WASHINGTON,Roslindale/,MA,2131,Active,FT,Eating & Drinking w/ Take Out,11/23/12 11:50,16175220578,0,42.295773,-71.117987
1376,Round Two,10 Walk Hill,Jamaica Plain,MA,2130,Active,FT,Eating & Drinking w/ Take Out,5/16/17 9:01,16174421402,157536,42.29585,-71.115739
532,Macy's Starbucks Kiosk,450 Washington,Boston,MA,2111,Active,FT,Eating & Drinking w/ Take Out,8/29/18 11:42,16173573000,358582,42.295887,-71.071861
49,At Union,174 HARVARD ,BOSTON,MA,2134,Active,FS,Eating & Drinking,7/10/09 9:05,16172444909,,42.296017,-71.082711
991,Tous Les Jours,152 Harvard,Boston,MA,2134,Active,FT,Eating & Drinking w/ Take Out,12/30/19 15:50,10000000000,404363,42.2961,-71.08138
631,OPPA SUSHI,185 Harvard,Allston,MA,2134,Active,FS,Eating & Drinking,4/2/15 14:53,16172023808,352348,42.2962,-71.08377
986,Tiger Sugar,185 Harvard,Allston,MA,2134,Active,FT,Eating & Drinking w/ Take Out,1/21/20 10:06,10000000000,352348,42.2962,-71.08377
416,Country Kitchen,830 Blue Hill,Dorchester,MA,2124,Active,FS,Eating & Drinking,1/30/09 13:13,16172124413,16567,42.29621,-71.08718
1146,Natif Natal Restaurant,830 Blue Hill,Dorchester,MA,2124,Active,FS,Eating & Drinking,7/6/15 12:48,16173266929,157956,42.296218,-71.08718
139,Bruegger's,667 VFW,West Roxbury,MA,2132,Active,FT,Eating & Drinking w/ Take Out,2/14/08 10:39,16173273465,,42.29627,-71.156874
461,King Fried Chicken,128 Harvard,Boston,MA,2124,Active,FT,Eating & Drinking w/ Take Out,2/24/21 13:12,18572663031,380584,42.296447,-71.079651
1035,Yo Momma,128A Harvard,Dorchester,MA,2124,Active,FT,Eating & Drinking w/ Take Out,10/19/21 11:10,10000000000,351560,42.296447,-71.079651
1098,MISONO RESTAURANT,669 VFW,Chestnut Hill,MA,2467,Active,FT,Eating & Drinking w/ Take Out,12/7/06 13:35,16173259919,156784,42.296579,-71.155008
773,HEBREW REHAB CENTER,1200 Centre,Roslindale,MA,2131,Active,FS,Eating & Drinking,12/7/06 13:36,16173638902,27533,42.296681,-71.130733
774,Hebrew Rehab Center 6th. Fl.,1200 Centre,Roslindale,MA,2131,Active,FS,Eating & Drinking,8/13/20 8:53,16173638000,27533,42.296681,-71.130733
516,Dunkin Donuts,1580 Dorchester,Dorchester,MA,2122,Active,FT,Eating & Drinking w/ Take Out,12/7/06 13:34,10009610808,157565,42.296914,-71.060388
1566,Subway,1576 Dorchester,Dorchester,MA,2122,Active,FT,Eating & Drinking w/ Take Out,12/7/06 13:36,17815727104,156882,42.297107,-71.060479
50,Athan's European Bakery,407 Washington,Brighton,MA,2135,Active,FS,Eating & Drinking,12/7/06 13:36,16177830313,352135,42.29736,-71.0728
1787,Twelve Bens,315 Adams,Dorchester,MA,2122,Active,FS,Eating & Drinking,12/7/06 13:33,16172656727,157360,42.298605,-71.057578
195,Chill On Park,142 Park,Dorchester,MA,2122,Active,FT,Eating & Drinking w/ Take Out,12/18/14 10:27,16178253900,355692,42.298625,-71.060422
556,Mcdonalds,500 Geneva,Dorchester,MA,2122,Active,FT,Eating & Drinking w/ Take Out,9/2/16 8:46,16172883468,352223,42.298797,-71.062961
1272,Pizza 24,301 Adams,Dorchester,MA,2122,Active,FT,Eating & Drinking w/ Take Out,5/20/09 11:04,16178222424,157699,42.299073,-71.058029
882,Just Thai,1512 Dorchester,Dorchester,MA,2122,Active,FS,Eating & Drinking,9/10/20 8:49,16172886388,224752,42.29912,-71.06032
38,Anh Hong Restaurant,291 Adams,Boston,MA,2122,Active,FS,Eating & Drinking,7/6/16 8:37,16172658889,378359,42.299201,-71.058182
950,THE BLARNEY STONE,1505 DORCHESTER ,DORCHESTER,MA,2122,Active,FS,Eating & Drinking,12/7/06 13:35,16174368223,,42.299256,-71.060595
68,Antonio's Hi-Fi,1508 Dorchester,Dorchester,MA,2122,Active,FT,Eating & Drinking w/ Take Out,9/19/14 13:46,16178429592,48338,42.29929,-71.06025
290,Cape Verde Taste,481 Geneva,Dorchester,MA,2122,Active,FT,Eating & Drinking w/ Take Out,3/26/21 8:06,18572474384,156569,42.299318,-71.064788
1190,Oasis Cafe,105 Bowdoin,Dorchester,MA,2121,Active,FT,Eating & Drinking w/ Take Out,5/19/16 8:26,16176378693,17400,42.29957,-71.07367
383,Golden Chef,1495 Dorchester,Dorchester,MA,2122,Active,FT,Eating & Drinking w/ Take Out,2/25/20 15:35,16174076039,378355,42.299607,-71.060497
492,Down Home Delivery & Catering,2 Bowdoin,Dorchester,MA,2124,Active,FT,Eating & Drinking w/ Take Out,10/1/10 9:31,16172880813,17676,42.29962,-71.07332
70,Bambu,287 Adams,Dorchester,MA,2122,Active,FS,Eating & Drinking,12/12/16 11:23,15088084895,421205,42.299682,-71.058791
883,Sweet Sip,285 Adams,Dorchester,MA,2122,Active,FT,Eating & Drinking w/ Take Out,12/14/16 15:02,18576548378,421204,42.299682,-71.058791
1196,OLD COLONY YACHT CLUB,235 Victory,Dorchester,MA,2122,Active,FS,Eating & Drinking,8/18/21 9:56,16175155243,140600,42.2997,-71.0444
955,Levi's Restaurant & Lounge,323 Washington,Dorchester,MA,2121,Active,FS,Eating & Drinking,4/23/09 9:49,16172870400,146031,42.29983,-71.07452
1356,RINO'S PIZZA,730 Blue Hill,Dorchester,MA,2121,Active,FT,Eating & Drinking w/ Take Out,12/7/06 13:36,16178225134,156903,42.299836,-71.086029
804,Huong Que Vietnamese Restaurant,272 Adams,Dorchester,MA,2122,Active,FS,Eating & Drinking,7/8/20 14:19,18579397939,624,42.299882,-71.058388
1133,My Sister Crawfish Restaurant III,1487 Dorchester,Dorchester,MA,2122,Active,FS,Eating & Drinking,7/29/21 11:59,16175296054,157039,42.299933,-71.060441
1393,Saigon Seafood Restaurant,270 Adams,Dorchester,MA,2122,Active,FS,Eating & Drinking,5/2/16 12:16,16172651008,341009,42.299952,-71.058533
682,FOREST HILLS PIZZA,3722 Washington,Jamaica Plain,MA,2130,Active,FT,Eating & Drinking w/ Take Out,9/1/15 14:52,16033770078,156254,42.299986,-71.113271
383,Coco Leaf,1480 Dorchester,Dorchester,MA,2122,Active,FS,Eating & Drinking,7/6/16 12:34,17812545218,48331,42.30008,-71.05995
1499,Spring House,44 Allandale,Roslindale,MA,2130,Active,FS,Eating & Drinking,12/7/06 13:34,16175220043,157427,42.300125,-71.130588
470,DOGWOOD CAFE,3712 Washington,Jamaica Plain,MA,2130,Active,FS,Eating & Drinking,12/7/06 13:34,16174481608,144976,42.30018,-71.11314
219,Brassica Kitchen & Cafe,3710 Washington,Jamaica Plain,MA,2130,Active,FS,Eating & Drinking,1/8/15 8:15,10000000000,144975,42.30025,-71.11308
1749,Tikki Masala Indian Restaurant,3706 Washington,Jamaica Plain,MA,2130,Active,FS,Eating & Drinking,5/27/14 9:25,10000000000,144973,42.30036,-71.11297
1157,New Oriental House,3704 Washington,Jamaica Plain,MA,2130,Active,FT,Eating & Drinking w/ Take Out,7/27/21 9:41,16179831388,144972,42.30042,-71.11292
80,BEACON HILL HOTEL & BISTRO,25 Charles,Boston,MA,2114,Active,FS,Eating & Drinking,2/15/19 13:37,16177237575,364451,42.30047,-71.06291
623,EUGENE O' NEILLS,3700 Washington,Jamaica Plain,MA,2130,Active,FS,Eating & Drinking,3/25/21 9:17,16175532492,144970,42.30053,-71.112809
239,BUKHARA INDIAN BISTRO,3698 Washington,Jamaica Plain,MA,2130,Active,FS,Eating & Drinking,6/5/19 8:53,16176333975,144968,42.300583,-71.112757
1097,Minina's Cafe,430 Geneva,Dorchester,MA,2122,Active,FT,Eating & Drinking w/ Take Out,11/9/10 9:51,16172653931,63341,42.30059,-71.06637
782,Hills Deli,3696 Washington,Jamaica Plain,MA,2130,Active,FS,Eating & Drinking,12/7/06 13:33,10003253523,144967,42.30064,-71.1127
385,Gong Cha,1472 Dorchester,Dorchester,MA,2122,Active,FT,Eating & Drinking w/ Take Out,9/7/21 9:37,16172975126,355646,42.300757,-71.059781
1041,Yuen Barbeque Restaurant,1458 DORCHESTER,DORCHESTER,MA,2122,Active,FT,Eating & Drinking w/ Take Out,10/26/09 13:41,16172886868,,42.300757,-71.059781
854,Starbucks Coffee # 801,1 CHARLES ST,BOSTON,MA,2108,Active,FT,Eating & Drinking w/ Take Out,5/22/07 9:30,10000000000,,42.300852,-71.060321
1268,Pikalox,422 Geneva,Dorchester,MA,2122,Active,FT,Eating & Drinking w/ Take Out,12/2/21 10:04,16175957256,157138,42.300918,-71.066929
485,Dot Cafe,1459 Dorchester,Dorchester,MA,2122,Active,FS,Eating & Drinking,1/9/19 15:02,16174369100,155975,42.300947,-71.060149
790,Home Stead,1448 Dorchester,Dorchester,MA,2122,Active,FS,Eating & Drinking,2/26/15 14:32,16172905822,48323,42.301184,-71.059748
1225,PAPA RINO'S PIZZA,392 Geneva,Dorchester,MA,2122,Active,FT,Eating & Drinking w/ Take Out,12/7/06 13:36,16173234122,156837,42.30136,-71.067739
131,BRIGHAM & WOMENS FAULKNER HOSPITAL,1153 CENTRE,JAMAICA PLAIN,MA,2130,Active,FS,Eating & Drinking,12/7/06 13:33,16179837265,,42.30138,-71.128079
941,The Atrium Cafe@Brigham & Womens Faulkner Hosp.,1153 Centre,Jamaica Plain,MA,2130,Active,FT,Eating & Drinking w/ Take Out,7/24/07 10:56,16179837265,,42.30138,-71.128079
1390,Saigon Chicken House,223 Adams,Dorchester,MA,2122,Active,FS,Eating & Drinking,2/23/18 9:06,16174368888,156041,42.301468,-71.060031
257,Domino's Pizza,205 Adams,Dorchester,MA,2122,Active,FT,Eating & Drinking w/ Take Out,4/17/12 12:57,15085201000,,42.301843,-71.060193
565,MIKES DONUT SHOP,500 ARBORWAY,JAMAICA PLAIN,MA,2130,Active,FT,Eating & Drinking w/ Take Out,4/4/07 14:52,16175248564,,42.301864,-71.10855
240,D'BENNY'S SUBS,1433 DORCHESTER ,DORCHESTER,MA,2124,Active,FT,Eating & Drinking w/ Take Out,12/7/06 13:36,16179136287,,42.302167,-71.059971
1258,PHO 2000,198 Adams,Dorchester,MA,2122,Active,FS,Eating & Drinking,6/30/11 8:49,16174361908,606,42.30224,-71.06
1898,Yale Appliance,296 Freeport,Dorchester,MA,2125,Active,FS,Eating & Drinking,3/2/10 9:29,16173793440,165450,42.302654,-71.051559
379,GIDDY UP GRILL,1 FRANKLIN PARK,BOSTON,MA,2122,Active,FT,Eating & Drinking w/ Take Out,12/7/06 13:36,16179892007,,42.30286,-71.087629
920,La Esquina Restaurant,624 Blue Hill,Dorchester,MA,2121,Active,FT,Eating & Drinking w/ Take Out,5/31/19 9:45,16178220200,156302,42.302878,-71.085018
222,Cornerstone Pizza Cafe,5 BOWDOIN,DORCHESTER,MA,2121,Active,FT,Eating & Drinking w/ Take Out,1/11/07 8:41,16174279404,,42.30302,-71.0773
1542,STASH'S PIZZA,612 Blue Hill,Dorchester,MA,2121,Active,FT,Eating & Drinking w/ Take Out,12/7/06 13:35,16175909063,157613,42.303207,-71.084901
1810,VAUGHN'S FISH N CHIPS,1 Erie,Dorchester,MA,2121,Active,FT,Eating & Drinking w/ Take Out,12/7/06 13:34,16178251194,158002,42.303295,-71.078779
834,ISLAND STYLE INC.,183 Washington,Dorchester,MA,2121,Active,FT,Eating & Drinking w/ Take Out,12/7/06 13:36,16173615485,158297,42.303349,-71.07876
741,Santo Domingo Restaurant,179 Washington,Boston,MA,2121,Active,FS,Eating & Drinking,12/22/16 7:44,16172827788,377791,42.303427,-71.078791
997,Los Hermanos Restaurant,604 Blue Hill,Dorchester,MA,2121,Active,FS,Eating & Drinking,4/13/21 10:29,10000000000,157780,42.303728,-71.084728
689,Freeport Street Cafeteria,179 Freeport,Dorchester,MA,2122,Active,FS,Eating & Drinking,12/12/13 8:47,16176911560,60866,42.30375,-71.05454
1260,Pho Hoa restaurant/Drink Lab,1370 Dorchester,Dorchester,MA,2122,Active,FS,Eating & Drinking,2/26/10 14:41,16172879746,157770,42.304043,-71.05896
837,Italian Pizza & Sub Express,162 South,Jamaica Plain,MA,2130,Active,FT,Eating & Drinking w/ Take Out,10/3/16 12:09,16173905301,169797,42.304101,-71.114452
1261,Pho Le,1356 Dorchester,Dorchester,MA,2122,Active,FS,Eating & Drinking,6/18/10 11:21,16175066294,155819,42.3044,-71.058961
854,JEANIE JOHNSTON PUB,144 South,Jamaica Plain,MA,2130,Active,FS,Eating & Drinking,12/7/06 13:36,16179839432,156266,42.305066,-71.114449
365,CHUNG WAH,199 Bowdoin,Dorchester,MA,2122,Active,FT,Eating & Drinking w/ Take Out,12/7/06 13:35,16173359401,17675,42.30509,-71.06819
1392,Saigon One Restaurant,1331 Dorchester,Dorchester,MA,2122,Active,FS,Eating & Drinking,9/24/15 10:45,18576548378,48290,42.3052,-71.05917
1909,Yelus,116 Washington,Dorchester,MA,2121,Active,FT,Eating & Drinking w/ Take Out,3/7/17 9:03,18572713926,156125,42.30522,-71.080008
1743,Third Cliff Bakery,3521 Washington,Jamaica Plain,MA,2130,Active,FT,Eating & Drinking w/ Take Out,10/16/19 14:28,16177976072,144947,42.30544,-71.10885
1289,Pollo Centro,223 Bowdoin,Dorchester,MA,2122,Active,FS,Eating & Drinking,2/29/16 12:20,18578917920,17683,42.30569,-71.06733
871,JP Kitchen,3510 Washington,Jamaica Plain,MA,2130,Active,FS,Eating & Drinking,7/24/18 9:42,16175246888,144943,42.30583,-71.10785
99,Blend,1310 DORCHESTER ,DORCHESTER,MA,2122,Active,FS,Eating & Drinking,12/7/06 13:34,16172658846,,42.30591,-71.0586
1088,Midway Cafe,3496 Washington,Jamaica Plain,MA,2130,Active,FS,Eating & Drinking,12/7/06 13:33,16175249038,155701,42.306223,-71.107469
1901,Yanes Burrito's,3492 Washington,Jamaica Plain,MA,2130,Active,FT,Eating & Drinking w/ Take Out,12/11/08 9:37,16175223813,144936,42.30628,-71.10743
1254,Pete's Seafood,267 Bowdoin,Dorchester,MA,2122,Active,FS,Eating & Drinking,12/29/09 15:29,16178257114,157274,42.306542,-71.06641
626,One Family Diner Inc.,260 Bowdoin,Dorchester,MA,2125,Active,FS,Eating & Drinking,1/25/16 13:12,16174361577,354503,42.306801,-71.066708
1343,Restaurante Cesaria,266 Bowdoin,Dorchester,MA,2125,Active,FS,Eating & Drinking,12/7/06 13:35,16172813307,17701,42.30692,-71.06667
1586,SUN PIZZA,46 Washington,Dorchester,MA,2121,Active,FT,Eating & Drinking w/ Take Out,12/7/06 13:34,16175411991,146087,42.30715,-71.08214
1449,Showa Womens Institution,414 Pond,Jamaica Plain,MA,2130,Active,FS,Eating & Drinking,12/7/06 13:34,10005247403,111659,42.30759,-71.1313
880,Juicy Greens,61 South,Jamaica Plain,MA,2130,Active,FS,Eating & Drinking,8/2/17 10:55,18572889776,128877,42.30769,-71.11576
347,Fish Shack,312 Bowdoin,Dorchester,MA,2122,Active,FT,Eating & Drinking w/ Take Out,7/8/21 14:29,10000000000,352366,42.307832,-71.065561
928,La Parrilla,299 Hancock,Dorchester,MA,2125,Active,FT,Eating & Drinking w/ Take Out,8/18/16 15:19,16179905754,165966,42.308104,-71.058789
1805,UNITED HOUSE OF PRAYER FOR ALL PEOPLE,206 Seaver,Dorchester,MA,2121,Active,FS,Eating & Drinking,11/22/16 11:03,16174453245,169570,42.308248,-71.088946
416,Hissho Sushi,1 Court,Boston,MA,2108,Active,FS,Eating & Drinking,1/11/22 9:14,17049262200,351778,42.30836,-71.08586
873,Suffolk University Court Cafe,1 Court,Boston,MA,2108,Active,FT,Eating & Drinking w/ Take Out,7/22/21 10:35,10000000000,351778,42.30836,-71.08586
260,Don Tequeno Y Dona Arepa,491 Blue Hill,Boston,MA,2121,Active,FT,Eating & Drinking w/ Take Out,7/8/21 13:17,16177080221,377674,42.308367,-71.083611
1108,Monumental Market,34 South,Jamaica Plain,MA,2130,Active,FT,Eating & Drinking w/ Take Out,3/26/19 10:30,10000000000,128821,42.3084,-71.11536
444,DBAR,1236 Dorchester,Dorchester,MA,2125,Active,FS,Eating & Drinking,12/7/06 13:36,16172654490,156562,42.308431,-71.058031
534,Dunkin' Donuts,1236 Dorchester,Dorchester,MA,2125,Active,FT,Eating & Drinking w/ Take Out,12/7/06 13:34,10002825500,156562,42.308431,-71.058031
899,King Do,1225 Dorchester,Dorchester,MA,2125,Active,FS,Eating & Drinking,4/2/10 9:15,16174365464,48265,42.308959,-71.058405
351,FLAMES RESTAURANT III  INC.,469 BLUE HILL ,DORCHESTER,MA,2121,Active,FT,Eating & Drinking w/ Take Out,12/7/06 13:36,16175949827,,42.309036,-71.083258
1784,Turtle Swamp Brewing,3377 Washington,Jamaica Plain,MA,2130,Active,FS,Eating & Drinking,11/13/18 11:35,16173142952,144911,42.30906,-71.10557
591,EL EMBAJADOR RESTAURANT,3371 Washington,Jamaica Plain,MA,2130,Active,FT,Eating & Drinking w/ Take Out,12/7/06 13:34,10005226812,144910,42.3091,-71.10514
1413,Savin Hill Yacht Club,400 William T Morrissey,Dorchester,MA,2125,Active,FS,Eating & Drinking,12/14/15 9:51,16178251108,149917,42.30928,-71.044382
560,DUNKIN DONUTS BLUE HILL AVE,456 Blue Hill,Dorchester,MA,2121,Active,FT,Eating & Drinking w/ Take Out,12/7/06 13:35,16175411911,157922,42.309398,-71.08204
243,Burger King,1200 Dorchester,Dorchester,MA,2125,Active,FT,Eating & Drinking w/ Take Out,1/28/13 13:36,16172689071,48259,42.309531,-71.057693
1158,New York Fried Chicken,442 Blue Hill,Dorchester,MA,2121,Active,FT,Eating & Drinking w/ Take Out,2/25/10 15:02,16174422299,16468,42.3096,-71.08224
392,Grove Hall Creamery,444 Blue Hill,Dorchester,MA,2121,Active,FT,Eating & Drinking w/ Take Out,6/16/21 10:58,10000000000,437921,42.309623,-71.08226
677,Food For The Soul,651 Warren,Dorchester,MA,2121,Active,FT,Eating & Drinking w/ Take Out,12/12/17 10:12,16174423300,143328,42.309756,-71.083018
1033,Yaz's House Of Pizza,661 Warren,Dorchester,MA,2121,Active,FS,Eating & Drinking,6/14/19 10:22,16174450000,354440,42.309773,-71.083019
590,El Dugout,122 Seaver,Dorchester,MA,2121,Active,FT,Eating & Drinking w/ Take Out,9/26/12 10:19,16174425515,124142,42.30992,-71.09152
789,Soup Shack,779 Centre,Jamaica Plain,MA,2130,Active,FS,Eating & Drinking,2/8/18 12:51,16175220277,352449,42.30997,-71.115601
840,J P House of Pizza,775 Centre,Jamaica Plain,MA,2130,Active,FT,Eating & Drinking w/ Take Out,12/3/12 13:02,16175224154,28202,42.31006,-71.11548
618,Espresso Yourself,767 Centre,Jamaica Plain,MA,2130,Active,FS,Eating & Drinking,11/21/16 12:39,18572225841,163050,42.310259,-71.115521
1812,Vee Vee,763 Centre,Jamaica Plain,MA,2130,Active,FS,Eating & Drinking,1/31/08 15:39,16175220145,156219,42.310283,-71.11526
563,Dunkin Donuts(757 Centre St.),757 Centre,Jamaica Plain,MA,2130,Active,FT,Eating & Drinking w/ Take Out,12/7/06 13:34,16175249420,28193,42.31045,-71.11519
20,ADK Sandwich Shop,421 Bowdoin,Boston,MA,2122,Active,FT,Eating & Drinking w/ Take Out,8/13/21 10:35,10000000000,378654,42.310467,-71.062041
336,Evergreen Eatery,154 Green,Jamaica Plain,MA,2130,Active,FS,Eating & Drinking,11/6/17 13:49,16176765489,351883,42.310481,-71.106639
843,J. P. SEAFOOD CAFE INC.,730 Centre,Jamaica Plain,MA,2130,Active,FS,Eating & Drinking,12/7/06 13:34,16175226092,155925,42.310802,-71.114458
1725,The Real Deal,728 Centre,Jamaica Plain,MA,2130,Active,FT,Eating & Drinking w/ Take Out,3/6/08 8:59,16175154336,28180,42.310892,-71.11438
282,Caffe Nero,725 Centre,Jamaica Plain,MA,2130,Active,FS,Eating & Drinking,9/29/14 13:55,16172458902,28179,42.31117,-71.11475
415,Costello's Tavern Inc,717 Centre,Jamaica Plain,MA,2130,Active,FS,Eating & Drinking,12/7/06 13:33,16175229263,28177,42.31124,-71.11473
1167,NHU LAN Restaurant,1157 Dorchester,Dorchester,MA,2125,Active,FS,Eating & Drinking,9/12/16 12:37,17816059338,155988,42.311257,-71.058111
1880,Wingz and Tingz,388 Blue Hill,Dorchester,MA,2121,Active,FS,Eating & Drinking,6/7/17 14:52,16178217086,157101,42.31137,-71.08087
310,Casa Verde,711 Centre,Jamaica Plain,MA,2130,Active,FS,Eating & Drinking,9/17/15 15:26,10000000000,156387,42.311378,-71.114669
1166,Nhu Lan Fast Food,1155 Dorchester,Dorchester,MA,2125,Active,FT,Eating & Drinking w/ Take Out,2/4/11 9:43,16174741989,155879,42.311394,-71.058069
1178,Noodle Barn,707 Centre,Jamaica Plain,MA,2130,Active,FS,Eating & Drinking,9/17/14 13:03,16175222299,155915,42.311433,-71.114661
1065,MCKENNA'S CAFE,109 Savin Hill,Dorchester,MA,2125,Active,FS,Eating & Drinking,12/7/06 13:36,16174367676,156864,42.311515,-71.05382
704,Galway House,704 Centre,Jamaica Plain,MA,2140,Active,FS,Eating & Drinking,9/17/20 10:57,16175249677,155785,42.311569,-71.11418
180,Carrot Flower,703 Centre,Boston,MA,2130,Active,FS,Eating & Drinking,1/26/18 10:02,16172851334,397124,42.311607,-71.114611
791,Honeycomb Cafe,107 Savin Hill,Dorchester,MA,2125,Active,FT,Eating & Drinking w/ Take Out,5/8/17 10:44,10000000000,123164,42.311608,-71.053998
710,Ghost Pepper,120 Savin Hill,Dorchester,MA,2125,Active,FS,Eating & Drinking,12/21/18 11:23,16174367676,123171,42.311633,-71.053318
1412,Savin Bar And Kitchen,112 Savin Hill,Dorchester,MA,2125,Active,FS,Eating & Drinking,9/30/10 10:02,16174367676,123168,42.31168,-71.05351
471,La Cuchara Restaurant,381 Blue Hill,Boston,MA,2121,Active,FT,Eating & Drinking w/ Take Out,10/28/19 12:49,16174457500,378158,42.311747,-71.081111
298,Caramelo Bakery Cafe,375 Blue Hill,Dorchester,MA,2121,Active,FT,Eating & Drinking w/ Take Out,5/14/18 11:58,16174274020,16436,42.31178,-71.08106
1604,Sweet Rice,695 Centre,Jamaica Plain,MA,2130,Active,FS,Eating & Drinking,3/20/19 13:13,16175220555,156049,42.31179,-71.11453
153,Cada Dia Nutrition,7 Burroughs,Jamaica Plain,MA,2130,Active,FT,Eating & Drinking w/ Take Out,10/7/20 13:35,16175953245,398362,42.311958,-71.114731
1315,PURPLE CACTUS,674 Centre,Jamaica Plain,MA,2130,Active,FT,Eating & Drinking w/ Take Out,12/7/06 13:35,16175227588,28158,42.31214,-71.11395
838,J & J IRISH PUB & GRILLE,1130 Dorchester,Dorchester,MA,2122,Active,FS,Eating & Drinking,12/7/06 13:34,16172825919,156549,42.312214,-71.057191
975,Little Dipper,669 Centre,Jamaica Plain,MA,2130,Active,FS,Eating & Drinking,6/6/14 10:24,18577199294,158077,42.312503,-71.11437
738,SAME OLD PLACE INC.,662 CENTRE,JAMAICA PLAIN,MA,2130,Active,FS,Eating & Drinking,4/12/07 14:36,16175249461,,42.312592,-71.113912
901,TASTE OF INDIA,1111 DORCHESTER ,DORCHESTER,MA,2125,Active,FS,Eating & Drinking,12/7/06 13:35,16178679700,,42.312655,-71.057494
1301,Prieto El Rey De Las Empanadas,196 Humboldt,Dorchester,MA,2121,Active,FT,Eating & Drinking w/ Take Out,7/17/14 15:03,16174273331,75977,42.31273,-71.089595
1005,LUCKY CAFE,1107 Dorchester,Dorchester,MA,2125,Active,FT,Eating & Drinking w/ Take Out,10/15/20 10:20,16178229888,48202,42.312739,-71.05746
344,Chilacates,658 Centre,Jamaica Plain,MA,2130,Active,FS,Eating & Drinking,2/16/17 15:42,16179095341,155854,42.312748,-71.113869
1008,VENICE PIZZA,39 Savin Hill,Dorchester,MA,2125,Active,FS,Eating & Drinking,4/5/21 13:22,10000000000,355113,42.312827,-71.057401
2,100 Percent Delicias Express,656 Centre,Jamaica Plain,MA,2130,Active,FT,Eating & Drinking w/ Take Out,11/28/17 10:27,18572505689,28152,42.31283,-71.11386
598,Navarrete Restaurant,445 COLUMBIA,DORCHESTER,MA,2125,Active,FT,Eating & Drinking w/ Take Out,12/7/06 13:35,18574170683,,42.312877,-71.068011
845,J.P. LICKS INC.,659 Centre,Jamaica Plain,MA,2130,Active,FT,Eating & Drinking w/ Take Out,12/7/06 13:35,16175242020,156020,42.312887,-71.114449
227,CQ BBQ & Taco,79 Hancock,Dorchester,MA,2125,Active,FT,Eating & Drinking w/ Take Out,10/13/20 11:35,18573893412,351540,42.312999,-71.065102
1029,Mario's Pizzeria,197 Humboldt,Dorchester,MA,2121,Active,FT,Eating & Drinking w/ Take Out,3/12/18 14:10,16174454200,75978,42.31305,-71.08981
763,Harp & Bard,1097 Dorchester,Dorchester,MA,2125,Active,FS,Eating & Drinking,12/7/06 13:33,16172652893,156428,42.313066,-71.057429
261,Cafe Beirut,650 Centre,Jamaica Plain,MA,2130,Active,FT,Eating & Drinking w/ Take Out,3/13/12 10:28,16175227264,28151,42.31308,-71.1139
315,Eat Well Meal Kits,196 Quincy,Dorchester,MA,2121,Active,FS,Eating & Drinking,6/7/19 13:21,16317669354,377254,42.313086,-71.07392
724,Rootaste,196 Quincy,Dorchester,MA,2121,Active,FT,Eating & Drinking w/ Take Out,10/13/21 14:04,16177929356,377254,42.313086,-71.07392
1032,Yamacu,196 Quincy,Dorchester,MA,2121,Active,FT,Eating & Drinking w/ Take Out,11/10/21 13:58,10000000000,377254,42.313086,-71.07392
128,Beacon Cafe @Univ. of Mass Boston,100 William T Morrissey,Dorchester,MA,2125,Active,FS,Eating & Drinking,10/18/13 10:53,16172875082,155810,42.313144,-71.038947
511,Dunkin Donuts,100 William T Morrissey,Dorchester,MA,2125,Active,FT,Eating & Drinking w/ Take Out,10/11/17 10:34,16172875082,155810,42.313144,-71.038947
786,Hissho Sushi & Mein Bowl,100 William T Morrissey,Dorchester,MA,2125,Active,FT,Eating & Drinking w/ Take Out,8/10/21 11:38,10000000000,155810,42.313144,-71.038947
824,Integrated Sciences Complex Cafe,100 William T Morrissey,Dorchester,MA,2125,Active,FT,Eating & Drinking w/ Take Out,7/10/14 9:15,16172875033,155810,42.313144,-71.038947
1795,UMass Boston Dining Commons,100 William T Morrissey,Dorchester,MA,2125,Active,FS,Eating & Drinking,9/22/16 14:23,10000000000,155810,42.313144,-71.038947
978,Little Pickins,196 Quincy,Dorchester,MA,2125,Active,FS,Eating & Drinking,5/15/19 9:42,19176837742,168997,42.313161,-71.074241
1267,Pikalox,3160 Washington,Jamaica Plain,MA,2130,Active,FS,Eating & Drinking,3/30/18 11:51,16175957256,156089,42.313579,-71.100251
17,A. Butter,633 Centre,Jamaica Plain,MA,2130,Active,FS,Eating & Drinking,12/16/19 8:18,17187819799,344812,42.313746,-71.114645
311,Casabe Kitchen,633 Centre,Jamaica Plain,MA,2130,Active,FS,Eating & Drinking,5/9/19 15:50,17819033557,344812,42.313746,-71.114645
345,First Baptist Church in Jamaica Plain,633 Centre,Jamaica Plain,MA,2130,Active,FS,Eating & Drinking,12/28/10 13:46,16175243992,,42.313746,-71.114645
1509,St. Mary's Ctr. for Women & Children,90 Cushing,Dorchester,MA,2125,Active,FS,Eating & Drinking,6/26/15 13:27,16174368600,45189,42.31382,-71.06317
372,Future Chefs,295 Blue Hill,Dorchester,MA,2121,Active,FS,Eating & Drinking,11/12/19 10:17,13393680802,419677,42.313898,-71.079505
1405,Samuel Adams Boston Brewery,30 Germania,Jamaica Plain,MA,2130,Active,FS,Eating & Drinking,3/20/18 11:53,16173685000,341029,42.314191,-71.103518
673,Fomu,615 Centre,Jamaica Plain,MA,2130,Active,FT,Eating & Drinking w/ Take Out,11/9/12 11:02,10000000000,28139,42.31435,-71.11429
1191,Oasis Restaurant,33 Hancock,Dorchester,MA,2125,Active,FS,Eating & Drinking,8/8/19 14:33,16177408288,68926,42.31437,-71.06585
567,MIKE'S FITNESS,21D Bismarck,Jamaica Plain,MA,2130,Active,FS,Eating & Drinking,12/7/06 13:36,10000000000,,42.314546,-71.102741
448,Delicias Del Caribe,149 Stoughton,Dorchester,MA,2125,Active,FT,Eating & Drinking w/ Take Out,12/28/09 15:25,16173793381,131112,42.314644,-71.060322
1702,The Joint,605 Centre,Jamaica Plain,MA,2130,Active,FS,Eating & Drinking,2/21/19 11:54,10000000000,157831,42.31478,-71.114279
108,BALE RESTAURANT,1052 Dorchester,Dorchester,MA,2125,Active,FT,Eating & Drinking w/ Take Out,12/7/06 13:35,16174799006,156182,42.314791,-71.056611
1650,TEN TABLES,597 Centre,Jamaica Plain,MA,2130,Active,FS,Eating & Drinking,12/7/06 13:35,10005248810,28129,42.3149,-71.11427
1754,Tokava,597 Centre,Jamaica Plain,MA,2130,Active,FS,Eating & Drinking,7/19/19 11:11,16175247663,28129,42.3149,-71.11427
1004,LUCKY BOSTON CHINESE REST.,3096 Washington,Roxbury,MA,2119,Active,FT,Eating & Drinking w/ Take Out,12/7/06 13:34,16174458302,144623,42.31506,-71.09877
474,La Parada Dominican Kitchen,3094 Washington,Roxbury,MA,2119,Active,FT,Eating & Drinking w/ Take Out,10/13/20 13:47,16179427599,351590,42.315112,-71.09864
1372,Rompe Dieta Restaurant,14 Hancock,Dorchester,MA,2125,Active,FS,Eating & Drinking,9/22/17 12:47,16172975087,68887,42.31525,-71.06583
109,Ban Toi Restaurant,1035 Dorchester,Dorchester,MA,2125,Active,FS,Eating & Drinking,5/8/19 10:15,18573616945,155971,42.315341,-71.056869
1159,NEW YORK FRIED CHICKEN & PIZZA,531 Columbia,Dorchester,MA,2125,Active,FT,Eating & Drinking w/ Take Out,12/7/06 13:36,16177873169,156840,42.315432,-71.06626
587,EGLESTON PIZZA,3080 Washington,Roxbury,MA,2119,Active,FT,Eating & Drinking w/ Take Out,12/7/06 13:35,17813200097,144616,42.31545,-71.09841
261,Dora Taqueria,112 Stoughton,Boston,MA,2125,Active,FS,Eating & Drinking,4/15/21 9:09,10000000000,384462,42.315487,-71.061271
289,CANTON HOUSE,6 Hancock,Dorchester,MA,2125,Active,FT,Eating & Drinking w/ Take Out,2/25/20 15:46,16172883825,158300,42.315595,-71.065919
1054,Mcdonalds,3064 Washington,Roxbury,MA,2119,Active,FT,Eating & Drinking w/ Take Out,6/27/18 14:19,16174420475,158206,42.315629,-71.097909
211,Boston Pizza & Grill,533 Columbia,Dorchester,MA,2125,Active,FT,Eating & Drinking w/ Take Out,7/26/13 10:57,16172166302,163553,42.315736,-71.065951
1468,Singhs Roti,554 Columbia,Dorchester,MA,2125,Active,FT,Eating & Drinking w/ Take Out,11/30/21 14:31,10000000000,156099,42.31631,-71.06628
343,Chilacates,222 Amory,Jamaica Plain,MA,2130,Active,FT,Eating & Drinking w/ Take Out,7/2/15 10:08,16179095341,3286,42.316388,-71.103161
1005,Uphams House of Pizza,566A Columbia,Dorchester,MA,2125,Active,FS,Eating & Drinking,2/7/17 11:29,16172827141,351801,42.316574,-71.06608
497,DUBLIN HOUSE,9 Stoughton,Dorchester,MA,2125,Active,FS,Eating & Drinking,12/7/06 13:34,16172822235,155753,42.316689,-71.064821
444,JC Smoothies,2 Copley,Boston,MA,2116,Active,FT,Eating & Drinking w/ Take Out,9/18/18 10:29,18572370072,421250,42.31679,-71.10096
875,J-Pizzle Kitchen,536 Centre,Jamaica Plain,MA,2130,Active,FS,Eating & Drinking,8/8/18 13:18,16175247575,28098,42.31686,-71.11327
252,Dining Hall @Emerson,122 Boylston,Boston,MA,2116,Active,FS,Eating & Drinking,6/5/18 15:02,17043284373,367801,42.316957,-71.103051
536,Dunkin' Donuts,1926 Columbus,Roxbury,MA,2119,Active,FT,Eating & Drinking w/ Take Out,12/7/06 13:36,16175411911,157214,42.317029,-71.098011
396,Community Servings Employee Cafeteria,18 Marbury,Jamaica Plain,MA,2130,Active,FS,Eating & Drinking,6/28/18 10:27,16175227777,89503,42.317784,-71.102918
1152,New Ho Toy,746 Dudley,Dorchester,MA,2124,Active,FT,Eating & Drinking w/ Take Out,7/12/19 14:51,16175147797,156124,42.317958,-71.066568
468,District 7 Tavern,380 Warren,Roxbury,MA,2119,Active,FS,Eating & Drinking,10/22/18 10:29,16715447699,157321,42.317986,-71.081739
669,Picalonga Restaurant,744 Dudley,Boston,MA,2125,Active,FS,Eating & Drinking,11/6/18 11:21,18572583108,384707,42.317987,-71.066621
493,Life Changing Nutrition,724 Dudley,Dorchester,MA,2125,Active,FT,Eating & Drinking w/ Take Out,6/17/21 13:46,10000000000,440251,42.318267,-71.067501
811,IDEAL CAFE 'D PIZZA,482 Centre,Jamaica Plain,MA,2130,Active,FT,Eating & Drinking w/ Take Out,3/23/07 10:45,16175243344,28073,42.31858,-71.11206
647,Fiskie's Cafe,27 Harbor Point,Dorchester,MA,2125,Active,FS,Eating & Drinking,5/8/18 8:49,16172828288,157978,42.318879,-71.042291
646,Pantry Pizza,931 Dorchester,Dorchester,MA,2125,Active,FT,Eating & Drinking w/ Take Out,11/26/19 10:17,16172820033,351618,42.318886,-71.056916
944,THE BANSHEE,934 DORCHESTER ,DORCHESTER,MA,2125,Active,FS,Eating & Drinking,12/7/06 13:34,16174369747,,42.31897,-71.05648
430,Crown Fried Chicken,344 Warren,Roxbury,MA,2119,Active,FS,Eating & Drinking,1/17/18 14:10,16174451414,143259,42.31898,-71.08113
382,CLUB HOTEL BAR,240 Mount Vernon,Dorchester,MA,2125,Active,FS,Eating & Drinking,12/7/06 13:35,16178223600,98929,42.319024,-71.045007
1031,Marketplace Cafe & Take Away,240 Mount Vernon,Dorchester,MA,2125,Active,FS,Eating & Drinking,12/7/06 13:35,16178223600,98929,42.319024,-71.045007
1773,Tres Gatos Cafe,470 Centre,Jamaica Plain,MA,2130,Active,FS,Eating & Drinking,10/15/10 10:00,16175246622,28069,42.31909,-71.11164
1077,MERENGUE RESTAURANT,156 Blue Hill,Roxbury,MA,2119,Active,FS,Eating & Drinking,12/7/06 13:34,16174455403,156563,42.319179,-71.077549
171,Blue Hill House of Pizza,161 Blue Hill,Roxbury,MA,2119,Active,FT,Eating & Drinking w/ Take Out,11/9/18 12:30,16174450044,16335,42.31931,-71.07795
1917,ZESTO'S PIZZA,460 Centre,Jamaica Plain,MA,2130,Active,FT,Eating & Drinking w/ Take Out,4/28/11 8:54,16175242004,28061,42.31935,-71.11154
1325,Ray & Joan Krok Community Center,650 Dudley,Dorchester,MA,2125,Active,FS,Eating & Drinking,3/14/11 13:00,16173186900,49820,42.319405,-71.070057
392,Columbia Park Cafe @ Santander Bank,2 William T Morrissey,Dorchester,MA,2125,Active,FS,Eating & Drinking,7/26/12 8:54,16175331695,149910,42.31943,-71.04927
1292,Popeyes,300 Martin Luther King Jr,Roxbury,MA,2119,Active,FT,Eating & Drinking w/ Take Out,8/31/15 10:29,16144778252,91767,42.319437,-71.082521
287,Canary Square,435 Huntington,Jamaica Plain,MA,2130,Active,FS,Eating & Drinking,8/3/10 9:58,16173088607,76817,42.31979,-71.112
894,Kentucky Fried Chicken,695 Columbia,Dorchester,MA,2125,Active,FT,Eating & Drinking w/ Take Out,3/25/11 14:27,17819820755,156502,42.31997,-71.061799
794,HONG KONG CHEF,889 Dorchester,Dorchester,MA,2125,Active,FT,Eating & Drinking w/ Take Out,9/23/21 9:31,18572341755,158361,42.320061,-71.056929
1453,Side Chick,692 Columbia,Dorchester,MA,2125,Active,FT,Eating & Drinking w/ Take Out,2/4/22 14:36,16175061757,157945,42.32022,-71.062459
1053,Mcdonalds,301 Warren,Roxbury,MA,2119,Active,FT,Eating & Drinking w/ Take Out,5/14/19 13:24,10000000000,341036,42.320347,-71.082165
596,El Oriental De Cuba,414 Centre,Jamaica Plain,MA,2130,Active,FS,Eating & Drinking,6/7/07 11:08,16175949026,28034,42.32076,-71.11047
542,Dunkin' Donuts,256 Boston,Dorchester,MA,2125,Active,FT,Eating & Drinking w/ Take Out,12/7/06 13:34,10000000000,17156,42.32087,-71.06091
736,Great Wok,1284 Massachusetts,Dorchester,MA,2125,Active,FT,Eating & Drinking w/ Take Out,9/5/07 14:09,16172881078,91960,42.32103,-71.06171
789,Home Run Cafe,1269 Massachusetts,Dorchester,MA,2125,Active,FS,Eating & Drinking,12/18/15 10:19,16172889262,91953,42.32146,-71.06264
1582,Sugar Bowl Cafe LLC,857 Dorchester,Dorchester,MA,2125,Active,FS,Eating & Drinking,12/27/21 16:01,16178491021,157324,42.321461,-71.05696
1667,The Avenue Grille,856 Dorchester,Dorchester,MA,2127,Active,FT,Eating & Drinking w/ Take Out,10/24/18 11:09,16172888000,156742,42.321542,-71.056589
182,Casa Real Mexican Food,856 Dorchester,DORCHESTER,MA,2125,Active,FT,Eating & Drinking w/ Take Out,3/31/08 14:43,16172823135,,42.32156,-71.056591
92,AUNTIE VIE'S BAKERY & CAFE,538 Dudley,Roxbury,MA,2119,Active,FT,Eating & Drinking w/ Take Out,5/13/19 13:49,10000000000,164576,42.321647,-71.072046
1275,PIZZA OGGI,8 Perkins,Jamaica Plain,MA,2130,Active,FT,Eating & Drinking w/ Take Out,12/7/06 13:35,16179830440,109550,42.32169,-71.11063
683,Fort Hill Bar & Grill,2801 Washington,Roxbury,MA,2119,Active,FS,Eating & Drinking,6/22/17 13:04,16176424262,171110,42.321695,-71.092196
104,BACKWOODS PIZZA,539 Dudley,Roxbury,MA,2119,Active,FT,Eating & Drinking w/ Take Out,1/14/21 9:15,16174457400,156012,42.321739,-71.072511
961,The Haven,401 Centre,Jamaica Plain,MA,2130,Active,FS,Eating & Drinking,3/4/10 10:57,10000000000,,42.321767,-71.110291
544,Dunkin' Donuts,847 Dorchester,Dorchester,MA,2125,Active,FT,Eating & Drinking w/ Take Out,12/7/06 13:34,10000000000,156523,42.32179,-71.05698
222,Brendan Behan Pub,378 Centre,Jamaica Plain,MA,2130,Active,FS,Eating & Drinking,5/23/07 13:20,16176978964,28013,42.32199,-71.10926
1266,Pikalo J.P.,378 Centre,Jamaica Plain,MA,2130,Active,FT,Eating & Drinking w/ Take Out,4/9/15 11:20,16175221210,28013,42.32199,-71.10926
515,M & M BBQ,1250 Massachusetts,Dorchester,MA,2125,Active,FS,Eating & Drinking,4/17/19 13:29,16174350375,384306,42.3221,-71.062173
1734,THE UNION LOUNGE,180 Mount Vernon,Dorchester,MA,2125,Active,FS,Eating & Drinking,12/7/06 13:34,16172883322,155812,42.322135,-71.046901
7,224 BOSTON,224 Boston,Dorchester,MA,2125,Active,FS,Eating & Drinking,8/1/18 15:20,16172651217,156048,42.322272,-71.060848
679,FOOD WALL CHINESE,387 Centre,Jamaica Plain,MA,2130,Active,FT,Eating & Drinking w/ Take Out,12/7/06 13:35,16175246636,28018,42.32228,-71.10956
25,ALEX'S CHIMIS,358 CENTRE,JAMAICA PLAIN,MA,2130,Active,FS,Eating & Drinking,12/7/06 13:35,16175225201,,42.32228,-71.107538
929,La Patrona Mexican Grill,360 Centre,Jamaica Plain,MA,2130,Active,FT,Eating & Drinking w/ Take Out,10/6/20 9:06,16174774815,28004,42.32229,-71.10776
674,Pikalo J.P.,360 Centre,Jamaica Plain,MA,2130,Active,FT,Eating & Drinking w/ Take Out,3/29/22 14:59,16175221210,396253,42.322307,-71.107761
1086,MIAMI RESTAURANT,381 Centre,Jamaica Plain,MA,2130,Active,FS,Eating & Drinking,12/7/06 13:35,10000000000,158224,42.322337,-71.10927
812,IDEAL SUB SHOP,522 Dudley,Roxbury,MA,2119,Active,FT,Eating & Drinking w/ Take Out,12/7/06 13:34,16174421560,155793,42.322343,-71.072418
622,Ethiopian Cafe,377 Centre,Jamaica Plain,MA,2130,Active,FS,Eating & Drinking,7/14/17 10:10,16173196971,343460,42.322376,-71.109129
297,CAPTAIN NEMO'S,367 Centre,Jamaica Plain,MA,2130,Active,FT,Eating & Drinking w/ Take Out,12/7/06 13:35,16179710100,156016,42.322472,-71.108578
1760,Top Mix Bar & Kitchen,365 Centre,Jamaica Plain,MA,2130,Active,FS,Eating & Drinking,7/14/21 12:42,16172019853,28007,42.322657,-71.108212
1715,The Old Havana,349 Centre,Jamaica Plain,MA,2130,Active,FS,Eating & Drinking,11/21/13 13:20,16179839275,27995,42.32267,-71.10675
295,CAPPY'S PIZZA,304 Centre,Jamaica Plain,MA,2130,Active,FT,Eating & Drinking w/ Take Out,11/18/20 9:32,16175220279,27964,42.32271,-71.10341
433,Il Panino Cafe and Grill,268 Centre,Jamaica Plain,MA,2130,Active,FS,Eating & Drinking,4/13/11 9:34,10000000000,341884,42.322718,-71.10105
939,LATINO RESTAURANT,302 Centre,Jamaica Plain,MA,2130,Active,FS,Eating & Drinking,12/7/06 13:34,16172654464,27963,42.32273,-71.10325
1364,RIZZO'S PIZZA,347 Centre,Jamaica Plain,MA,2130,Active,FT,Eating & Drinking w/ Take Out,12/7/06 13:35,16175226480,27993,42.32274,-71.10644
1768,Tostado,300 Centre,Jamaica Plain,MA,2130,Active,FT,Eating & Drinking w/ Take Out,4/30/10 9:06,16174778691,156274,42.322754,-71.103059
1912,Young Kong Restaurant,300 Centre,Jamaica Plain,MA,2130,Active,FT,Eating & Drinking w/ Take Out,9/11/19 14:54,16175228922,156274,42.322754,-71.103059
1910,Yely's Coffee Shop,284 Centre,Jamaica Plain,MA,2130,Active,FT,Eating & Drinking w/ Take Out,12/7/06 13:34,16175229988,27955,42.32277,-71.10204
520,Dunkin Donuts,315 Centre,Jamaica Plain,MA,2130,Active,FT,Eating & Drinking w/ Take Out,12/7/06 13:34,10007392117,27970,42.323016,-71.103877
1766,Tori Japan,315 Centre,Jamaica Plain,MA,2130,Active,FT,Eating & Drinking w/ Take Out,6/3/21 15:46,10000000000,27970,42.323016,-71.103877
443,Jamaica Mi Hungry,223 Centre,Jamaica Plain,MA,2119,Active,FT,Eating & Drinking w/ Take Out,8/2/19 14:52,16172598017,351924,42.323113,-71.09908
884,KALIHARI GRILL,1 Circuit,Roxbury,MA,2119,Active,FT,Eating & Drinking w/ Take Out,12/7/06 13:36,16179892007,154032,42.32318,-71.08645
535,Maggie's Grill @ Franklin Park Golf Course,1 Circuit,Roxbury,MA,2119,Active,FS,Eating & Drinking,4/25/17 15:41,16179682112,,42.32318,-71.08645
1185,Nos Casa Cafe,475 Dudley,Roxbury,MA,2119,Active,FT,Eating & Drinking w/ Take Out,12/2/10 15:21,16176067060,49758,42.32325,-71.073678
1759,Top Mix Bar & Kitchen,257 Norfolk,Roxbury,MA,2119,Active,FS,Eating & Drinking,12/7/06 13:34,16176528976,156604,42.323726,-71.068078
1557,Stop & Shop Supermarket #075,301 Centre,Jamaica Plain,MA,2130,Active,FS,Eating & Drinking,12/8/08 10:01,16173232160,155939,42.324073,-71.10315
1840,Villa Sombrero Restaurant,11 Blue Hill,Roxbury,MA,2119,Active,FS,Eating & Drinking,6/9/21 14:29,16174422003,16151,42.32487,-71.07551
440,J.P. Licks @ Southbay,20 District,Dorchester,MA,2125,Active,FT,Eating & Drinking w/ Take Out,12/12/17 10:59,16175240699,420662,42.325377,-71.062701
857,Starbucks Coffee #50497,20 District,Dorchester,MA,2125,Active,FT,Eating & Drinking w/ Take Out,6/13/17 10:30,18573375510,420662,42.325377,-71.062701
970,The Pearl Seafood Grill & Raw Bar,20 District,Dorchester,MA,2125,Active,FS,Eating & Drinking,12/9/19 8:49,16172888810,423052,42.325377,-71.062701
0,110 Grill,25 Jan Karski,Dorchester,MA,2125,Active,FS,Eating & Drinking,11/29/18 14:14,19786929450,421286,42.325392,-71.061553
1016,Wahlburgers,25 Jan Karski,Dorchester,MA,2125,Active,FS,Eating & Drinking,5/23/18 13:13,17817494972,421286,42.325392,-71.061553
990,Totto Ramen,20A District,Dorchester,MA,2125,Active,FS,Eating & Drinking,12/5/18 12:26,16179107114,437351,42.325393,-71.062826
31,AMC South Bay 12 (Concession),21 District,Dorchester,MA,2125,Active,FT,Eating & Drinking w/ Take Out,10/31/16 13:23,10000000000,420661,42.325627,-71.062078
32,AMC South Bay 12 (MacGuffins),21 District,Dorchester,MA,2125,Active,FS,Eating & Drinking,10/31/16 13:32,10000000000,420661,42.325627,-71.062078
197,Chipotle Mexican Grill,21 District,Dorchester,MA,2125,Active,FS,Eating & Drinking,6/30/17 11:28,13032225994,420661,42.325627,-71.062078
398,Gyu Kaku,21 District,Dorchester,MA,2125,Active,FS,Eating & Drinking,12/20/17 13:38,13102149572,420661,42.325627,-71.062078
420,HOme 2 Suites,15 Jan Karski,Dorchester,MA,2125,Active,FS,Eating & Drinking,1/21/20 13:54,16177337599,421287,42.325846,-71.060556
70,APPLEBEE'S NEIGHBORHOOD GRILL & BAR,11A Allstate,Dorchester,MA,2125,Active,FS,Eating & Drinking,10/25/11 14:06,16174427139,172685,42.326047,-71.063611
1491,SOUTHERN BAPTIST CHURCH,29 Winthrop,Roxbury,MA,2119,Active,FS,Eating & Drinking,12/7/06 13:36,18578912991,158308,42.326081,-71.081638
1716,The Olive Garden Italian Restaurant # 1674,1118 Massachusetts,Dorchester,MA,2125,Active,FS,Eating & Drinking,6/4/07 11:12,16179891371,172432,42.326302,-71.065271
303,Dunkin Donuts @ Stop & Shop,1100 MASSACHUSETTS ,DORCHESTER,MA,2124,Active,FT,Eating & Drinking w/ Take Out,12/7/06 13:36,16172888361,,42.326467,-71.065495
1589,Super Stop & Shop,1100 Massachusetts,Dorchester,MA,2125,Active,FS,Eating & Drinking,3/22/13 12:50,16175414700,91942,42.326543,-71.065176
1221,Panera Bread,8 Allstate,Dorchester,MA,2125,Active,FS,Eating & Drinking,11/30/15 12:17,16172470179,155148,42.32656,-71.06169
1791,Ugi's Pizza,69 Heath,Jamaica Plain,MA,2120,Active,FT,Eating & Drinking w/ Take Out,1/4/10 10:49,16177194478,72404,42.32657,-71.1005
648,PARK SQ CAFE,31 ST JAMES ,BOSTON,MA,2116,Active,FS,Eating & Drinking,12/7/06 13:34,16174513868,,42.326627,-71.084895
1907,YAWKEY CLUB OF ROXBURY,115 Warren,Roxbury,MA,2119,Active,FS,Eating & Drinking,1/11/07 10:32,10000000000,143205,42.32679,-71.0838
1832,Victoria's Diner,1024 Massachusetts,Roxbury,MA,2118,Active,FS,Eating & Drinking,2/10/12 8:44,16174425965,91940,42.32707,-71.06681
306,Casa Bonita Mexican Grill,1033 Massachusetts,Roxbury,MA,2118,Active,FT,Eating & Drinking w/ Take Out,6/30/21 14:21,10000000000,91941,42.32709,-71.06764
418,Holiday Inn Express,69R Boston,DORCHESTER,MA,2125,Active,FS,Eating & Drinking,4/17/07 8:55,10000000000,,42.327278,-71.059439
670,Flying Embers,152 Hampden,Roxbury,MA,2119,Active,FS,Eating & Drinking,8/12/21 14:00,16177088017,68561,42.32779,-71.07492
419,Courtyard By Marriott,65R Boston,Dorchester,MA,2125,Active,FS,Eating & Drinking,5/1/07 14:36,16174368200,17176,42.32815,-71.060075
285,Dunkin Donuts,2489 Washington,Roxbury,MA,2119,Active,FT,Eating & Drinking w/ Take Out,7/12/17 10:44,16175616320,419827,42.328296,-71.086856
1597,Suya Joint,185 Dudley,Roxbury,MA,2119,Active,FS,Eating & Drinking,4/9/15 11:38,15084466746,49641,42.32832,-71.08196
871,Suffolk Construction,65 Allerton,Roxbury,MA,2119,Active,FS,Eating & Drinking,8/31/17 10:10,16175173556,375140,42.328346,-71.070211
1558,Stop and Taste Pizza Grill,239 Dudley,Roxbury,MA,2119,Active,FT,Eating & Drinking w/ Take Out,9/14/17 14:21,16174457866,158067,42.328379,-71.07974
595,EL MONDONGUITO,219 Dudley,Roxbury,MA,2119,Active,FS,Eating & Drinking,12/7/06 13:34,16175223672,158018,42.328383,-71.080679
1792,UGIS SUBS,62 Warren,Roxbury,MA,2119,Active,FT,Eating & Drinking w/ Take Out,12/7/06 13:34,16174277032,143319,42.32843,-71.08311
1214,P & R Restaurant & Ice Cream Parlor,208 Dudley,Roxbury,MA,2119,Active,FT,Eating & Drinking w/ Take Out,9/29/14 10:31,16172902147,49647,42.32863,-71.08105
1007,Vasquez Restaurant,258 Dudley,Roxbury,MA,2119,Active,FT,Eating & Drinking w/ Take Out,11/12/19 9:24,16177081279,375035,42.328652,-71.07901
270,CAFE POLONIA,611 Dorchester,South Boston,MA,2127,Active,FS,Eating & Drinking,12/7/06 13:35,16172690110,156768,42.328788,-71.057108
1247,PEKING HOUSE,160 Dudley,Roxbury,MA,2119,Active,FS,Eating & Drinking,12/7/06 13:35,10004429215,156022,42.328803,-71.082988
562,Miami Pizza,150 Dudley,Boston,MA,2119,Active,FT,Eating & Drinking w/ Take Out,6/18/21 10:41,18574171811,375402,42.328827,-71.083281
862,Joe's Famous Subs & Pizza,140 Dudley,Roxbury,MA,2119,Active,FT,Eating & Drinking w/ Take Out,12/7/06 13:33,19057720000,49635,42.329035,-71.08372
1441,Shanti Express,49 Warren,Roxbury,MA,2119,Active,FT,Eating & Drinking w/ Take Out,3/16/21 11:16,16178585747,157037,42.329079,-71.083589
1455,Silver Slipper,2387 Washington,Roxbury,MA,2119,Active,FS,Eating & Drinking,12/7/06 13:35,15085863230,157310,42.32914,-71.085068
900,Target Store T-1898,7 ALLSTATE,DORCHESTER,MA,2125,Active,FS,Eating & Drinking,12/7/06 13:35,16127611913,,42.32933,-71.06329
1378,Royal Fried Chicken,2360 Washington,Roxbury,MA,2119,Active,FT,Eating & Drinking w/ Take Out,12/31/13 7:39,16174426927,171105,42.329364,-71.084435
1913,Yummy Yummy,2360 Washington,Roxbury,MA,2119,Active,FT,Eating & Drinking w/ Take Out,12/31/15 10:23,16179838811,171105,42.329364,-71.084435
75,Arizona B B Q,2360 Washington,Roxbury,MA,2119,Active,FT,Eating & Drinking w/ Take Out,3/4/08 14:08,16174422999,144493,42.32937,-71.08446
540,Dunkin' Donuts,2360 Washington,Roxbury,MA,2119,Active,FT,Eating & Drinking w/ Take Out,12/7/06 13:34,16174272800,144493,42.32937,-71.08446
620,Esthetic Bean,16 Preble,South Boston,MA,2127,Active,FT,Eating & Drinking w/ Take Out,8/16/21 9:54,16173157263,112534,42.32958,-71.05631
1591,Supreme House of Pizza,309 Old Colony,South Boston,MA,2127,Active,FT,Eating & Drinking w/ Take Out,12/29/15 8:16,18572656250,105089,42.32969,-71.05287
341,Fasika Cafe,51 Roxbury,Roxbury,MA,2119,Active,FS,Eating & Drinking,9/26/17 11:12,16174276300,351534,42.32971,-71.08546
602,NEW ENGLAND BAPTIST,125 PARKER HILL ,ROXBURY,MA,2120,Active,FS,Eating & Drinking,12/7/06 13:34,16177545096,,42.32974,-71.10673
525,Dunkin Donuts,510 Southampton,South Boston,MA,2127,Active,FT,Eating & Drinking w/ Take Out,12/7/06 13:34,16172699894,129078,42.32975,-71.05739
543,Mario's Subs & Salad,28 WARREN,ROXBURY,MA,2119,Active,FT,Eating & Drinking w/ Take Out,4/5/07 11:00,10000000000,,42.329817,-71.083075
1329,Red Line Pizza and Grill,582 Dorchester,South Boston,MA,2127,Active,FT,Eating & Drinking w/ Take Out,10/12/11 8:22,16174643003,341157,42.329935,-71.056761
56,ANDREW SQUARE HOUSE OF PIZZA,395 Dorchester,South Boston,MA,2127,Active,FT,Eating & Drinking w/ Take Out,9/25/18 10:15,16172681940,49085,42.33003,-71.05655
1105,Molly's Beachside,165 William J Day,South Boston,MA,2127,Active,FT,Eating & Drinking w/ Take Out,5/30/17 13:04,17742251003,156835,42.330089,-71.032158
267,Dudley Cafe,2296 Washington,Roxbury,MA,2119,Active,FS,Eating & Drinking,12/5/14 9:52,10000000000,344708,42.330158,-71.083664
783,Soleil Restaurant,2296 Washington,Roxbury,MA,2119,Active,FS,Eating & Drinking,9/12/17 10:14,16179594041,344708,42.330158,-71.083664
1208,On the Edge Nutrition,283 Old Colony,South Boston,MA,2127,Active,FT,Eating & Drinking w/ Take Out,1/21/20 15:37,18579392728,105086,42.33032,-71.05288
64,Anshur Restauruant,291 Roxbury,Roxbury,MA,2119,Active,FT,Eating & Drinking w/ Take Out,9/29/08 13:44,16176995306,119179,42.33041,-71.0943
1155,New Market Sq. Cafe,130 Newmarket,Roxbury,MA,2118,Active,FT,Eating & Drinking w/ Take Out,9/30/16 11:29,16175048287,156928,42.330416,-71.066709
437,Dahlak Restaurant,1127 Harrison,Roxbury,MA,2119,Active,FT,Eating & Drinking w/ Take Out,5/24/21 9:39,16174270461,157231,42.330446,-71.08203
896,Khadija's  Express Cafe,1127 Harrison,Roxbury,MA,2119,Active,FS,Eating & Drinking,3/21/18 12:40,16177081542,157231,42.330446,-71.08203
1498,SPORTS CONNECTION BAR & GRILL,560 Dorchester,South Boston,MA,2127,Active,FS,Eating & Drinking,12/7/06 13:35,16172684119,156668,42.330488,-71.05673
477,LANDMARK @ LONGWOOD,63 PARKER HILL ,BOSTON,MA,2120,Active,FS,Eating & Drinking,12/7/06 13:35,16179750110,,42.33055,-71.10906
876,J'S CAFE @BOS. W & S,980 Harrison,Roxbury,MA,2119,Active,FS,Eating & Drinking,12/7/06 13:36,17816031643,156921,42.330692,-71.079283
79,Ascia Foods,100 Malcolm X,Roxbury,MA,2119,Active,FS,Eating & Drinking,1/21/20 8:15,16179593031,340841,42.330905,-71.093373
273,DUNKIN',33 Huntington,Jamaica Plain,MA,2130,Active,FT,Eating & Drinking w/ Take Out,4/8/19 10:13,10000000000,419812,42.331131,-71.111988
745,SEAPOINT RESTAURANT,367 EAST EIGHTH,SOUTH BOSTON,MA,2127,Active,FS,Eating & Drinking,12/7/06 13:34,16172681476,,42.331147,-71.046341
1439,Shamrock Pub,501 Eighth,South Boston,MA,2127,Active,FS,Eating & Drinking,1/5/22 14:05,16177658075,156339,42.331251,-71.041281
255,Domino's,1400 Tremont,ROXBURY,MA,2119,Active,FT,Eating & Drinking w/ Take Out,12/13/17 7:35,16173186100,,42.331391,-71.09578
1886,Wok 'N Talk,23 Huntington,Jamaica Plain,MA,2130,Active,FS,Eating & Drinking,10/28/10 10:00,18579916882,169837,42.331462,-71.112153
1059,Mcdonalds,870 Massachusetts,Roxbury,MA,2119,Active,FT,Eating & Drinking w/ Take Out,3/5/19 10:32,16174424349,92661,42.33152,-71.07035
914,L STREET TAVERN,195 L,South Boston,MA,2127,Active,FS,Eating & Drinking,12/7/06 13:34,16172685643,157574,42.331583,-71.03505
870,Joseph's Pizzeria,8 Huntington,Mission Hill,MA,2130,Active,FS,Eating & Drinking,1/2/18 8:26,16177319880,156493,42.331757,-71.111738
191,Chilacates,1482 Tremont,Mission Hill,MA,2120,Active,FS,Eating & Drinking,4/4/18 10:13,16179716266,421181,42.331771,-71.098681
911,Tavern of Tales,1478 Tremont,Mission Hill,MA,2120,Active,FS,Eating & Drinking,11/22/19 14:58,16177080294,351808,42.331771,-71.098681
15,A K's Take Out & Delivery,1427 Tremont,Mission Hill,MA,2120,Active,FT,Eating & Drinking w/ Take Out,10/31/07 15:33,16175410300,136818,42.331858,-71.096333
870,Subway,904 Huntington,Mission Hill,MA,2115,Active,FS,Eating & Drinking,6/6/17 10:58,16172325752,354482,42.331927,-71.111711
1139,Nachlo,1443 Tremont,Mission Hill,MA,2119,Active,FT,Eating & Drinking w/ Take Out,2/20/18 10:26,17743920102,170503,42.33196,-71.096702
1130,Museum of Fine Arts-Taste D/B/A #19285,465 Huntington,Boston,MA,2115,Active,FS,Eating & Drinking,12/7/06 13:34,16172679300,76373,42.331977,-71.101647
549,Dunkin Donuts (1447 Tremont St.),1447 Tremont,Mission Hill,MA,2120,Active,FT,Eating & Drinking w/ Take Out,7/5/12 10:15,10000000000,320696,42.33198,-71.09681
781,HIGHLAND TAP OF BOSTON INC.,2121 Washington,Roxbury,MA,2119,Active,FS,Eating & Drinking,12/7/06 13:34,16177693191,155750,42.331982,-71.081961
755,HALEY HOUSE BAKERY CAFE,12 Dade,Roxbury,MA,2119,Active,FS,Eating & Drinking,12/7/06 13:36,16172368182,45601,42.33201,-71.08248
298,DUNKIN DONUTS',9 Melnea Cass,Roxbury,MA,2119,Active,FT,Eating & Drinking w/ Take Out,12/7/06 13:36,16175411911,351610,42.332045,-71.073726
1154,New Market Pizza & Grill,850 Massachusetts,Roxbury,MA,2119,Active,FT,Eating & Drinking w/ Take Out,4/4/16 14:22,16174271444,92659,42.33208,-71.07102
323,CHACHO'S PIZZA,1502 Tremont,Mission Hill,MA,2120,Active,FT,Eating & Drinking w/ Take Out,12/7/06 13:35,16174274167,158255,42.332099,-71.099309
1487,SOUTH BOSTON YACHT CLUB,1849 Columbia,South Boston,MA,2127,Active,FS,Eating & Drinking,12/7/06 13:35,16172686132,156662,42.332126,-71.027028
570,Milkweed,1508 Tremont,Mission Hill,MA,2120,Active,FS,Eating & Drinking,12/22/15 12:42,16175191234,376247,42.332162,-71.099512
229,Crispy Dough Pizzeria,1512 TREMONT,Mission Hill/,MA,2120,Active,FS,Eating & Drinking,9/25/12 13:58,16174457799,0,42.33217,-71.09962
177,Boba Me,1520 Tremont,Mission Hill,MA,2120,Active,FT,Eating & Drinking w/ Take Out,11/20/18 12:07,17815212827,137235,42.33221,-71.09977
566,MIKES DONUTS,1524A Tremont,ROXBURY,MA,2120,Active,FT,Eating & Drinking w/ Take Out,4/11/07 9:30,10000000000,,42.332226,-71.099958
483,Dona Habana Restaurant,811 Massachusetts,Roxbury,MA,2119,Active,FS,Eating & Drinking,8/11/16 15:18,16177080796,92656,42.33227,-71.074
758,HAMPTON INN & SUITES BOSTON,811 Massachusetts,Roxbury,MA,2119,Active,FS,Eating & Drinking,12/7/06 13:36,10004456400,92656,42.33227,-71.074
965,Lilly Gourmet Pasta Express,1526 Tremont,Mission Hill,MA,2120,Active,FT,Eating & Drinking w/ Take Out,2/18/10 10:12,16174278080,170516,42.332278,-71.100023
443,DAYIB CAFE,722 Shawmut,Roxbury,MA,2119,Active,FT,Eating & Drinking w/ Take Out,12/7/06 13:35,16176995306,157649,42.332783,-71.083221
30,ALFREDO'S ITALIAN KITCHEN,243 Dorchester,South Boston,MA,2127,Active,FT,Eating & Drinking w/ Take Out,12/7/06 13:36,16174581231,156257,42.332855,-71.051318
1596,Sushi Today,1562 Tremont,Mission Hill,MA,2120,Active,FS,Eating & Drinking,6/15/18 9:10,16177380888,137246,42.33293,-71.1017
1038,Massachusetts Eye & Ear EyeOpener Cafe,800 Huntington,Boston,MA,2115,Active,FT,Eating & Drinking w/ Take Out,8/20/12 9:56,16175733954,166438,42.333002,-71.107495
1149,New England Center For Arts & Technology,23 Bradston,Roxbury,MA,2118,Active,FS,Eating & Drinking,11/21/12 8:24,17819342219,19120,42.33314,-71.0706
1567,Subway,1578 Tremont,Mission Hill,MA,2120,Active,FT,Eating & Drinking w/ Take Out,1/10/19 15:35,16172323956,137255,42.33324,-71.10256
1022,Mama's Place,764A Huntington,Mission Hill,MA,2115,Active,FT,Eating & Drinking w/ Take Out,2/6/14 14:20,16175661300,255810,42.33331,-71.10601
873,JP LICKS @ BRIGHAM CIRCLE,1618 Tremont,Mission Hill,MA,2120,Active,FT,Eating & Drinking w/ Take Out,12/7/06 13:36,16175242020,157254,42.333351,-71.10442
983,Local 149,143 P,South Boston,MA,2127,Active,FS,Eating & Drinking,2/4/11 13:14,16172690900,106247,42.33337,-71.02731
1772,TREMONT HOUSE OF PIZZA,1586 Tremont,Mission Hill,MA,2120,Active,FT,Eating & Drinking w/ Take Out,12/7/06 13:34,10005666120,137263,42.3334,-71.10305
695,PuddingStone Tavern,1592 Tremont,Roxbury,MA,2120,Active,FS,Eating & Drinking,2/7/18 15:33,16176083152,351757,42.333456,-71.103153
1644,TBaar,754 Huntington,Mission Hill,MA,2115,Active,FT,Eating & Drinking w/ Take Out,2/25/20 15:13,10000000000,76421,42.333487,-71.105724
654,FLAMES RESTAURANT,746 Huntington,Mission Hill,MA,2116,Active,FT,Eating & Drinking w/ Take Out,12/7/06 13:36,16175949827,156872,42.333629,-71.105491
583,Montecristo Mexican Grille,748A Huntington,Boston,MA,2115,Active,FT,Eating & Drinking w/ Take Out,4/5/21 14:19,16172322228,351492,42.33363,-71.10549
713,Residence Inn,2001 Washington,Roxbury,MA,2119,Active,FS,Eating & Drinking,9/7/17 11:30,16038976100,419940,42.333644,-71.08145
417,Hissho Sushi @ Stop & Shop,1620 Tremont,Mission Hill,MA,2120,Active,FT,Eating & Drinking w/ Take Out,10/21/19 8:25,17049262200,434807,42.333677,-71.103991
784,Solid Ground Cafe,742 Huntington,Boston,MA,2115,Active,FT,Eating & Drinking w/ Take Out,6/5/18 15:12,16174875557,366005,42.333677,-71.105441
816,Ilmondo Pizzaria,738 Huntington,Mission Hill,MA,2115,Active,FT,Eating & Drinking w/ Take Out,1/9/18 13:39,16173359833,156026,42.333711,-71.105368
940,TGI Fridays,1622 Tremont,Boston,MA,2120,Active,FS,Eating & Drinking,10/5/20 10:42,16177341047,,42.333726,-71.104494
753,Halal Indian Cuisine,736 Huntington,Mission Hill,MA,2115,Active,FS,Eating & Drinking,8/4/17 11:32,16172325000,156373,42.333739,-71.10529
226,BRIGHAM CIRCLE CHINESE FOOD,728 Huntington,Boston,MA,2115,Active,FT,Eating & Drinking w/ Take Out,1/23/15 11:02,16172782000,155913,42.333793,-71.105138
1555,Stop & Shop #412,1622 Tremont,Mission Hill,MA,2120,Active,FS,Eating & Drinking,12/8/08 10:13,16173232160,170526,42.333796,-71.104562
1099,MISSION BAR & GRILL,724 Huntington,Mission Hill,MA,2115,Active,FS,Eating & Drinking,12/7/06 13:36,16175661244,157676,42.333847,-71.105038
713,Ginger Exchange,1625 Tremont,Roxbury,MA,2120,Active,FS,Eating & Drinking,8/16/12 9:17,10000000000,137283,42.33392,-71.10354
480,Domino's Pizza,163 Old Colony,South Boston,MA,2127,Active,FT,Eating & Drinking w/ Take Out,8/8/12 9:22,16172682900,105071,42.33403,-71.05504
913,L STREET DINER,108 L,South Boston,MA,2127,Active,FT,Eating & Drinking w/ Take Out,12/7/06 13:35,16172681155,156806,42.334052,-71.035091
271,DUNKIN',1631 TREMONT,ROXBURY,MA,2119,Active,FT,Eating & Drinking w/ Take Out,12/7/06 13:34,16172328770,,42.334062,-71.103857
941,Laughing Monk Cafe,737 Huntington,Boston,MA,2115,Active,FS,Eating & Drinking,2/8/17 11:31,16172328000,156156,42.334069,-71.105529
662,Penguin Pizza,735 HUNTINGTON ,BOSTON,MA,2115,Active,FS,Eating & Drinking,12/7/06 13:36,16172779200,,42.334114,-71.105482
1319,QUALITY EATS,1199 Tremont,Roxbury,MA,2120,Active,FS,Eating & Drinking,12/10/15 12:52,16177974218,170498,42.33413,-71.090841
601,NEW CHINA RESTAURANT,869 Harrison,BOSTON,MA,2118,Active,FT,Eating & Drinking w/ Take Out,12/7/06 13:35,16175423280,,42.334427,-71.076121
1905,Yawkey Cafe,850 Harrison,Roxbury,MA,2118,Active,FS,Eating & Drinking,5/25/16 14:49,16174147003,341234,42.334515,-71.074014
770,Sixth Gear Cask & Kitchen,81 L,South Boston,MA,2127,Active,FS,Eating & Drinking,1/12/16 8:56,16172686681,355198,42.334657,-71.035601
548,DUNKIN' DONUTS #0311,818 Harrison,Roxbury,MA,2118,Active,FS,Eating & Drinking,12/7/06 13:34,16172470745,156600,42.334723,-71.073488
797,SQUEALING PIG,134 Smith,Boston,MA,2120,Active,FS,Eating & Drinking,12/7/06 13:35,16175666651,375664,42.334727,-71.102041
1276,Pizza Stop,851 Harrison,Roxbury,MA,2118,Active,FS,Eating & Drinking,8/15/13 8:19,16174274054,70068,42.33474,-71.07567
1859,Waterstone at The Circle,385 Chestnut Hill,Brighton,MA,2135,Active,FS,Eating & Drinking,5/3/16 12:32,16175595225,341978,42.334781,-71.150514
14,AC Hotel by Marriott,395 Chestnut Hill,Brighton,MA,2467,Active,FS,Eating & Drinking,6/13/16 14:08,16038976100,419814,42.334799,-71.150516
1226,Papa's Pizza Company,682 Huntington,Boston,MA,2120,Active,FS,Eating & Drinking,6/21/18 14:33,16176487272,156833,42.334854,-71.102439
391,Grille 705,705 Massachusetts,BOSTON,MA,2118,Active,FT,Eating & Drinking w/ Take Out,1/4/08 11:02,17819560151,,42.33487,-71.07545
1454,SIDEWALK CAFE,764 Fourth,South Boston,MA,2127,Active,FT,Eating & Drinking w/ Take Out,12/7/06 13:35,16174641977,157499,42.334979,-71.033538
1184,Northeastern University/Cafe Crossing,1175 Tremont,Boston,MA,2120,Active,FS,Eating & Drinking,5/14/09 10:52,16173732530,160935,42.334987,-71.089493
342,Fat Baby Sushi,116 Dorchester,Boston,MA,2127,Active,FS,Eating & Drinking,6/12/17 11:00,16172246602,388516,42.33503,-71.04619
417,Countway LIbrary Cafe,10 Shattuck,Boston,MA,2115,Active,FS,Eating & Drinking,10/28/19 13:05,16174326165,125974,42.335067,-71.103716
288,Cannonball Cafe,383 Dorchester,South Boston,MA,2127,Active,FS,Eating & Drinking,6/29/21 12:35,19788772212,343874,42.335073,-71.057204
730,GrandTen Distilling,383 Dorchester,South Boston,MA,2127,Active,FS,Eating & Drinking,5/27/15 9:43,16172690497,225399,42.33508,-71.05729
530,Dunkin Donuts,75 L,South Boston,MA,2127,Active,FT,Eating & Drinking w/ Take Out,7/10/14 10:32,16172681792,82583,42.335135,-71.035629
803,Hunter's,110 Dorchester,South Boston,MA,2127,Active,FS,Eating & Drinking,10/24/19 14:53,16172686429,157491,42.335139,-71.04595
1250,PERKIN'S SQ DELI,106 Dorchester,South Boston,MA,2127,Active,FT,Eating & Drinking w/ Take Out,12/7/06 13:33,16172695622,48839,42.3352,-71.04583
366,Cibo Boston,69 L,South Boston,MA,2127,Active,FT,Eating & Drinking w/ Take Out,3/26/21 8:27,16178034712,156561,42.335233,-71.035219
155,Cafe Landwer,383 Chestnut Hill,Brighton,MA,2467,Active,FS,Eating & Drinking,12/21/17 11:13,16177759634,419371,42.33527,-71.150565
233,BROADWAY'S BEST PIZZA,483 Broadway,South Boston,MA,2127,Active,FT,Eating & Drinking w/ Take Out,8/19/19 15:09,16172681228,156388,42.335274,-71.04559
121,Boston Medical Center,830 Harrison,Roxbury,MA,2118,Active,FT,Eating & Drinking w/ Take Out,12/12/18 10:18,16176388000,341783,42.335291,-71.07296
122,Boston Medical Center (Shapiro Bldg.),830 Harrison,Roxbury,MA,2118,Active,FS,Eating & Drinking,2/19/10 10:41,16174147003,341783,42.335291,-71.07296
408,HARVARD SCHOOL-PUBLIC HEALTH,677 HUNTINGTON ,BOSTON,MA,2115,Active,FS,Eating & Drinking,12/7/06 13:34,10004955556,,42.335306,-71.102775
853,Java House,541 Broadway,South Boston,MA,2127,Active,FT,Eating & Drinking w/ Take Out,3/10/21 14:46,16172683117,157314,42.335317,-71.042431
1277,Pizzatalia,618 Shawmut,Roxbury,MA,2118,Active,FT,Eating & Drinking w/ Take Out,12/7/06 13:35,16175414040,126453,42.33536,-71.08059
612,Northeastern Univ./International Village,1155 Tremont,ROXBURY,MA,2120,Active,FS,Eating & Drinking,12/4/08 10:45,16173732530,,42.33538,-71.088953
141,BTM Cafe,60 Fenwood,Boston,MA,2115,Active,FS,Eating & Drinking,8/22/16 14:14,16177327493,347439,42.335386,-71.108562
651,Pat's Place,60 Fenwood,Boston,MA,2115,Active,FT,Eating & Drinking w/ Take Out,7/29/21 13:19,17819790362,347439,42.335386,-71.108562
386,Gray's Hall,615 Broadway,South Boston,MA,2127,Active,FS,Eating & Drinking,7/9/19 13:19,10000000000,423617,42.335397,-71.039691
