,BusinessName,Address,CITY,State,ZIP,LICSTATUS,LICENSECAT,DESCRIPT,LicenseAddDtTm,dayphn,Property_ID,Latitude,Longitude
0,# 7 RESTAURANT,225 Grove,West Roxbury,MA,02132,Active,FT,Eating & Drinking w/ Take Out,2007-03-23 15:20:59,10000000000,156965.0,42.261873,-71.15741
1,100 Federal Market & Barista- 11th Floor,100 Federal,Boston,MA,02110,Active,FT,Eating & Drinking w/ Take Out,2021-01-12 10:37:24,16174345000,57150.0,42.35477,-71.05613
2,100 Percent Delicias Express,656 Centre,Jamaica Plain,MA,02130,Active,FT,Eating & Drinking w/ Take Out,2017-11-28 10:27:47,18572505689,28152.0,42.31283,-71.11386
3,11 Dining -16th Fl.,200 Berkeley,Boston,MA,02116,Active,FS,Eating & Drinking,2019-12-20 09:32:17,10000000000,187943.0,42.34986,-71.07291
4,110 Grill,25 Jan Karski,Dorchester,MA,02125,Active,FS,Eating & Drinking,2018-11-29 14:14:04,19786929450,421286.0,0.0,0.0
5,129 Lake Street Cafe,127 LAKE,Brighton/,MA,02135,Active,FS,Eating & Drinking,2010-10-14 12:49:26,15084463942,0.0,0.0,0.0
6,149 Eat Street,300 CHELSEA,Charlestown/,MA,02129,Active,FS,Eating & Drinking,2007-10-11 09:08:52,16177262520,0.0,0.0,0.0
7,163 Vietnamese Sandwich,66 Harrison,BOSTON,MA,02111,Active,FS,Eating & Drinking,2007-08-09 13:26:45,16175427903,,0.0,0.0
8,1928 Beacon Hill,97 Mount Vernon,Boston,MA,02108,Active,FS,Eating & Drinking,2021-10-05 12:30:10,18572335662,98781.0,42.35806,-71.06972
9,20TH CENTRY BOWLING LANES,1231 Hyde Park,Hyde Park,MA,02136,Active,FT,Eating & Drinking w/ Take Out,2006-12-07 13:34:04,13392372645,77089.0,42.25682,-71.12411
10,21 ST. AMENDMENT,150 Bowdoin,Boston,MA,02108,Active,FS,Eating & Drinking,2006-12-07 13:34:35,16172277100,158193.0,42.358336,-71.062581
11,224 BOSTON,224 Boston,Dorchester,MA,02125,Active,FS,Eating & Drinking,2018-08-01 15:20:09,16172651217,156048.0,42.322272,-71.060848
12,2Twenty2,4 Liberty,Boston,MA,02109,Active,FS,Eating & Drinking,2021-09-17 13:50:19,16177233222,421341.0,0.0,0.0
13,320 Cafe,314 Spring,West Roxbury,MA,02132,Active,FS,Eating & Drinking,2017-08-23 13:20:17,13057851745,157799.0,42.271712,-71.17211
14,410- North End Butcher,100 Legends,Boston,MA,02114,Active,FT,Eating & Drinking w/ Take Out,2009-01-28 11:01:15,16176241600,,0.0,0.0
15,417-Sal's Pizza,100 Legends,Boston,MA,02114,Active,FT,Eating & Drinking w/ Take Out,2009-02-01 11:31:47,16176241600,,0.0,0.0
16,50/50 Lounge,1 Dalton,Boston,MA,02115,Active,FS,Eating & Drinking,2020-07-02 11:47:22,16175301741,437941.0,0.0,0.0
17,75 CHESTNUT,75 Chestnut,Boston,MA,02108,Active,FS,Eating & Drinking,2006-12-07 13:34:54,16172272175,31472.0,42.356898,-71.070971
18,75 On Liberty Wharf,220 Northern,Boston,MA,02210,Active,FS,Eating & Drinking,2012-05-18 10:28:35,16178547631,342823.0,0.0,0.0
19,753 South,749 South,Roslindale,MA,02131,Active,FS,Eating & Drinking,2017-04-21 13:23:42,16176346738,128941.0,42.28716,-71.12912
20,8 Pizzas,600 Washington,Brighton,MA,02135,Active,FT,Eating & Drinking w/ Take Out,2021-09-13 11:06:44,10000000000,156134.0,42.350371,-71.167041
21,89 Broad Street/Fin Point,89 Broad,Boston,MA,02110,Active,FS,Eating & Drinking,2016-08-04 09:06:04,16173481234,20586.0,42.35744,-71.05316
22,9 Thai Express,433 Cambridge,Allston,MA,02134,Active,FT,Eating & Drinking w/ Take Out,2021-08-30 15:34:24,16175950409,351877.0,0.0,0.0
23,99 RESTAURANT AND PUB,29 Austin,Charlestown,MA,02129,Active,FS,Eating & Drinking,2006-12-07 13:34:27,16152568500,155829.0,42.374884,-71.067065
24,A & B Burgers,97 Beverly,Boston,MA,02114,Active,FS,Eating & Drinking,2018-07-16 12:05:13,16175964339,419694.0,0.0,0.0
25,A & N PIZZA,1409 Centre,West Roxbury,MA,02132,Active,FT,Eating & Drinking w/ Take Out,2006-12-07 13:36:14,16173232211,27566.0,42.29413,-71.13674
26,A K's Take Out & Delivery,1427 Tremont,Mission Hill,MA,02120,Active,FT,Eating & Drinking w/ Take Out,2007-10-31 15:33:00,16175410300,136818.0,42.331858,-71.096333
27,A La Esh,65 Northern,Boston,MA,02210,Active,FS,Eating & Drinking,2021-05-18 14:13:35,16179097415,103900.0,42.352583,-71.04586
28,A. Butter,633 Centre,Jamaica Plain,MA,02130,Active,FS,Eating & Drinking,2019-12-16 08:18:46,17187819799,344812.0,42.313746,-71.114645
29,A. T. O'Keeffe's Provisions & Pub,911 Boylston,Boston,MA,02115,Active,FS,Eating & Drinking,2022-02-01 09:18:19,10000000000,351730.0,0.0,0.0
30,ABE & LOUIE'S,793 Boylston,Boston,MA,02116,Active,FS,Eating & Drinking,2011-04-04 15:19:34,16175364200,18399.0,42.34924,-71.0816
31,ABIGAIL'S TEA ROOM @CONGRESS BRIDGE,306 Congress,Boston,MA,02210,Active,FS,Eating & Drinking,2012-01-17 12:47:36,16177371773,,0.0,0.0
32,AC Hotel by Marriot,225 Albany,Roxbury,MA,02118,Active,FS,Eating & Drinking,2016-04-25 09:21:47,17819533682,419340.0,0.0,0.0
33,AC Hotel by Marriott,395 Chestnut Hill,Brighton,MA,02467,Active,FS,Eating & Drinking,2016-06-13 14:08:14,16038976100,419814.0,0.0,0.0
34,Acapulco Mexican Restaurant,466 CENTRE,JAMAICA PLAIN,MA,02130,Active,FS,Eating & Drinking,2006-12-07 13:34:15,16175244328,,0.0,0.0
35,Aceituna,100 Federal,Boston,MA,02110,Active,FS,Eating & Drinking,2018-05-30 12:57:10,10000000000,358023.0,0.0,0.0
36,Aceituna Grill,99 Seaport,Boston,MA,02210,Active,FS,Eating & Drinking,2016-06-20 11:02:50,16172520707,350792.0,0.0,0.0
37,Achilitos Taqueria,160 Chestnut Hill,Brighton,MA,02135,Active,FT,Eating & Drinking w/ Take Out,2020-08-27 11:57:08,10000000000,408551.0,0.0,0.0
38,Achilitos Taqueria,38 Hyde Park,Jamaica Plain,MA,02130,Active,FS,Eating & Drinking,2018-01-24 11:26:17,16179875465,352202.0,0.0,0.0
39,Adams B & B,12 Edgerly,Boston,MA,02115,Active,FS,Eating & Drinking,2006-12-07 13:35:30,16172672262,51167.0,42.34606,-71.08786
40,ADK Sandwich Shop,421 Bowdoin,Boston,MA,02122,Active,FT,Eating & Drinking w/ Take Out,2021-08-13 10:35:35,10000000000,378654.0,0.0,0.0
41,AFC Sushi @ Emerson College,120 Boylston,Boston,MA,02116,Active,FT,Eating & Drinking w/ Take Out,2019-10-16 14:09:40,16178248500,348055.0,0.0,0.0
42,AFC Sushi @ Shaws #1208,246 Border,East Boston,MA,02128,Active,FT,Eating & Drinking w/ Take Out,2018-06-05 10:32:34,13106043200,155969.0,42.376441,-71.040039
43,AFC Sushi @ Shaws #3696,50 Causeway,Boston,MA,02114,Active,FT,Eating & Drinking w/ Take Out,2019-09-13 15:01:32,18546172415,423632.0,0.0,0.0
44,AFC Sushi @ Walgreens #15390,10 School,Boston,MA,02108,Active,FT,Eating & Drinking w/ Take Out,2013-04-24 13:58:51,10000000000,169533.0,42.357327,-71.058968
45,AFC SUSHI @SIMMONS COLLEGE,300 Fenway,Boston,MA,02115,Active,FS,Eating & Drinking,2010-08-20 10:13:45,16173649375,57444.0,42.33931,-71.09996
46,AFC Sushi @Star Market #3577,75 Spring,West Roxbury,MA,02132,Active,FT,Eating & Drinking w/ Take Out,2018-01-31 11:31:57,16173270564,129598.0,42.27871,-71.1633
47,Air France Lounge,500 Terminal,East Boston,MA,02128,Active,FS,Eating & Drinking,2014-12-31 11:30:03,12016383677,341351.0,0.0,0.0
48,Ajeen,1219 Commonwealth,Allston,MA,02134,Active,FT,Eating & Drinking w/ Take Out,2019-02-27 09:45:44,10000000000,157940.0,42.350755,-71.13087
49,AK's Takeout,309 D,South Boston,MA,02127,Active,FT,Eating & Drinking w/ Take Out,2020-06-17 14:27:41,16172693500,156426.0,42.339981,-71.04924
50,AL DENTE RISTORANTE,109 Salem,Boston,MA,02113,Active,FS,Eating & Drinking,2006-12-07 13:34:30,16175230990,121695.0,42.36421,-71.05536
51,Aladdin @ Bunker Hill Comm. College,250 Rutherford,Charlestown,MA,02129,Active,FS,Eating & Drinking,2018-07-06 08:14:12,16172282335,395006.0,0.0,0.0
52,Alcove,131 Beverly,Boston,MA,02114,Active,FS,Eating & Drinking,2017-09-13 13:15:03,17745268386,172189.0,42.36703,-71.060086
53,ALEX PIZZA,1252 Washington,Roxbury,MA,02118,Active,FT,Eating & Drinking w/ Take Out,2006-12-07 13:36:33,16178339626,157038.0,42.342301,-71.067378
54,ALEX'S CHIMIS,358 CENTRE,JAMAICA PLAIN,MA,02130,Active,FS,Eating & Drinking,2006-12-07 13:35:02,16175225201,,0.0,0.0
55,ALFREDO'S,229 Brighton,Allston,MA,02134,Active,FT,Eating & Drinking w/ Take Out,2006-12-07 13:35:52,16175628222,156216.0,42.353679,-71.135669
56,ALFREDO'S ITALIAN KITCHEN,243 Dorchester,South Boston,MA,02127,Active,FT,Eating & Drinking w/ Take Out,2006-12-07 13:36:02,16174581231,156257.0,42.332855,-71.051318
57,Ali Baba,99A Cambridge,Charlestown,MA,02129,Active,FS,Eating & Drinking,2020-01-23 13:03:32,16173986902,351905.0,0.0,0.0
58,ALI ROTI RESTAURANT,1035 Tremont,Mission Hill,MA,02120,Active,FT,Eating & Drinking w/ Take Out,2006-12-07 13:34:58,16172989850,136793.0,42.33666,-71.08563
59,Alibi,215 Charles,Boston,MA,02114,Active,FS,Eating & Drinking,2011-12-14 08:20:31,18572411144,160740.0,42.36203,-71.070362
60,Ali's Uyghur Kitchen,1 Brighton,Allston,MA,02134,Active,FT,Eating & Drinking w/ Take Out,2022-02-15 15:38:54,15713856111,157732.0,42.352411,-71.125329
61,All Spice,41 Worcester,Roxbury,MA,02118,Active,FS,Eating & Drinking,2020-03-10 10:15:31,16172665300,152332.0,42.33587,-71.0742
62,ALLIS ROTI + MEAT MARKET,1188 Blue Hill,Mattapan,MA,02126,Active,FT,Eating & Drinking w/ Take Out,2006-12-07 13:34:12,16172989850,16183.0,42.28377,-71.09129
63,Alma Cantina,15 Union,Boston,MA,02108,Active,FS,Eating & Drinking,2021-06-25 12:45:13,16178350438,139286.0,42.360853,-71.056685
64,Alma Gaucha,401 D,Boston,MA,02210,Active,FS,Eating & Drinking,2020-02-04 13:53:35,16174204900,355423.0,0.0,0.0
65,Aloft Boston Seaport Hotel,401 D,Boston,MA,02210,Active,FS,Eating & Drinking,2021-12-29 11:20:56,16175301600,355423.0,0.0,0.0
66,Aloft Boston Seaport Hotel Refuel,401 D,Boston,MA,02210,Active,FT,Eating & Drinking w/ Take Out,2021-12-29 11:30:46,16175301600,355423.0,0.0,0.0
67,AL'S CAFÃ‰,27 DRYDOCK,BOSTON,MA,02210,Active,FT,Eating & Drinking w/ Take Out,2021-04-14 11:40:27,16172811443,49599.0,42.344333,-71.027957
68,Al's South St. Express,179 Essex,Boston,MA,02111,Active,FT,Eating & Drinking w/ Take Out,2007-12-13 10:39:20,16173206953,54296.0,42.352051,-71.057585
69,AL'S STATE ST. CAFE,112 State,Boston,MA,02109,Active,FT,Eating & Drinking w/ Take Out,2006-12-07 13:35:40,16177205555,351886.0,0.0,0.0
70,Alta Strada Pizza Pronto,201 Brookline,Boston,MA,02215,Active,FT,Eating & Drinking w/ Take Out,2019-04-17 14:01:11,10000000000,340960.0,42.344649,-71.102201
71,Alta Strada/AM2-A03/29,100 Terminal,East Boston,MA,02128,Active,FS,Eating & Drinking,2019-05-09 15:00:04,10000000000,341357.0,42.364539,-71.021817
72,Alumni 1,2597 Beacon,Brighton,MA,02135,Active,FT,Eating & Drinking w/ Take Out,2010-06-03 09:48:17,16175523307,172185.0,42.336249,-71.166434
73,Alumni 2,2597 Beacon,Brighton,MA,02135,Active,FT,Eating & Drinking w/ Take Out,2010-06-03 09:51:09,16175523307,172185.0,42.336249,-71.166434
74,Alumni 3,2597 Beacon,Brighton,MA,02135,Active,FT,Eating & Drinking w/ Take Out,2010-06-03 10:06:10,16175523307,172185.0,42.336249,-71.166434
75,Alumni 4,2597 Beacon,Brighton,MA,02135,Active,FT,Eating & Drinking w/ Take Out,2010-06-03 10:09:18,16175523307,172185.0,42.336249,-71.166434
76,Alumni 5,2597 Beacon,Brighton,MA,02135,Active,FT,Eating & Drinking w/ Take Out,2010-06-03 10:11:42,16175523307,172185.0,42.336249,-71.166434
77,Al-Wadi Restaurant,1249 VFW,West Roxbury,MA,02132,Active,FS,Eating & Drinking,2010-07-28 08:29:14,16173233236,140286.0,42.27724,-71.17261
78,Amateras,112 South,Boston,MA,02111,Active,FS,Eating & Drinking,2015-02-27 11:24:15,16174232222,160792.0,42.350987,-71.057143
79,AMC South Bay 12 (Concession),21 District,Dorchester,MA,02125,Active,FT,Eating & Drinking w/ Take Out,2016-10-31 13:23:02,10000000000,420661.0,0.0,0.0
80,AMC South Bay 12 (MacGuffins),21 District,Dorchester,MA,02125,Active,FS,Eating & Drinking,2016-10-31 13:32:07,10000000000,420661.0,0.0,0.0
81,AMC Theatres Boston Common 19,175 Tremont,Boston,MA,02111,Active,FT,Eating & Drinking w/ Take Out,2006-12-07 13:35:25,18164805862,137447.0,42.35315,-71.06403
82,Amelia's Taqueria,1076 Boylston,Boston,MA,02215,Active,FS,Eating & Drinking,2018-08-15 14:17:22,16173658220,158326.0,42.346932,-71.08797
83,Amelia's Taqueria,180 Brighton,Allston,MA,02134,Active,FT,Eating & Drinking w/ Take Out,2013-04-04 13:29:03,16177877672,156787.0,42.353014,-71.133631
84,Amelia's Taqueria,309 Huntington,Boston,MA,02115,Active,FT,Eating & Drinking w/ Take Out,2014-11-07 08:52:00,16172660040,155730.0,42.341196,-71.087659
85,Amelia's Taqueria III,1936 Beacon,Brighton,MA,02135,Active,FS,Eating & Drinking,2017-05-02 14:14:50,16175056232,155677.0,42.336353,-71.149931
86,American Airlines Club Boston,200 Terminal,East Boston,MA,02128,Active,FS,Eating & Drinking,2018-03-23 11:31:34,16176345050,341353.0,0.0,0.0
87,Americano Espresso Bar,155 Meridian,East Boston,MA,02128,Active,FT,Eating & Drinking w/ Take Out,2007-02-13 08:24:51,16175938079,94405.0,42.373853,-71.038885
88,America's Test Kitchen,21 Dry Dock,Boston,MA,02210,Active,FS,Eating & Drinking,2017-12-14 10:35:55,16172321000,164542.0,42.344254,-71.030938
89,Amorino,249 Newbury,Boston,MA,02116,Active,FT,Eating & Drinking w/ Take Out,2014-06-23 14:26:32,16179539682,101461.0,42.349755,-71.082793
90,AMRHEIN'S,80 BROADWAY,SOUTH BOSTON,MA,02127,Active,FS,Eating & Drinking,2006-12-07 13:34:09,16172686189,,0.0,0.0
91,ANCHOVIES RESTAURANT,433 COLUMBUS ,BOSTON,MA,02116,Active,FS,Eating & Drinking,2006-12-07 13:36:42,16172665088,,0.0,0.0
92,Ancient & Honorable Artillery Company,200 Faneuil Hall Market,Boston,MA,02109,Active,FS,Eating & Drinking,2007-03-24 11:32:37,16172271638,,0.0,0.0
93,Andalus Pizza & Cafe,153 SUTHERLAND,BRIGHTON,MA,02135,Active,FT,Eating & Drinking w/ Take Out,2007-08-17 09:15:12,16179084750,,0.0,0.0
94,ANDREW SQUARE HOUSE OF PIZZA,395 Dorchester,South Boston,MA,02127,Active,FT,Eating & Drinking w/ Take Out,2018-09-25 10:15:19,16172681940,49085.0,42.33003,-71.05655
95,Angela's Cafe,131 Lexington,East Boston,MA,02128,Active,FT,Eating & Drinking w/ Take Out,2007-08-02 13:36:55,10000000000,85525.0,42.37853,-71.035
96,Angela's Cafe II,1012 Bennington,East Boston,MA,02128,Active,FT,Eating & Drinking w/ Take Out,2016-03-02 11:02:42,16175695267,162035.0,42.387115,-71.006309
97,Anh Hong Restaurant,291 Adams,Boston,MA,02122,Active,FS,Eating & Drinking,2016-07-06 08:37:52,16172658889,378359.0,0.0,0.0
98,Anna Hand Cut Donuts,2056 Centre,West Roxbury,MA,02132,Active,FS,Eating & Drinking,2006-12-07 13:33:55,16173232680,157110.0,42.280014,-71.158191
99,Anna's Cafe,267 Medford,Charlestown,MA,02129,Active,FT,Eating & Drinking w/ Take Out,2014-10-16 08:21:13,16174826050,93725.0,42.38129,-71.061549
100,Anna's Taqueria,242 Cambridge,Boston,MA,02114,Active,FS,Eating & Drinking,2008-06-09 13:08:50,16172278822,25260.0,42.36093,-71.0671
101,Anna's Taqueria,800 Boylston,Boston,MA,02199,Active,FT,Eating & Drinking w/ Take Out,2017-06-26 12:19:50,10000000000,157244.0,42.347296,-71.081457
102,Anoush Ella,35 Newton,Roxbury,MA,02118,Active,FS,Eating & Drinking,2016-09-06 14:05:21,17817297234,372424.0,0.0,0.0
103,Anoush' Ella,201 Brookline,Boston,MA,02215,Active,FT,Eating & Drinking w/ Take Out,2019-04-09 12:28:39,16175124819,340960.0,42.344649,-71.102201
104,Anshur Restauruant,291 Roxbury,Roxbury,MA,02119,Active,FT,Eating & Drinking w/ Take Out,2008-09-29 13:44:43,16176995306,119179.0,42.33041,-71.0943
105,ANTHONY'S CAFE,252 Commercial,Boston,MA,02109,Active,FT,Eating & Drinking w/ Take Out,2006-12-07 13:34:38,16177422987,36256.0,42.36399,-71.05137
106,ANTICO FORNO,93 Salem,Boston,MA,02113,Active,FS,Eating & Drinking,2006-12-07 13:34:46,16177428441,157423.0,42.363742,-71.055591
107,Antonios Bacaro,1 Fairmount,Hyde Park,MA,02136,Active,FS,Eating & Drinking,2015-07-06 12:12:14,16179479407,55669.0,42.25558,-71.12118
108,Antonio's Hi-Fi,1508 Dorchester,Dorchester,MA,02122,Active,FT,Eating & Drinking w/ Take Out,2014-09-19 13:46:30,16178429592,48338.0,42.29929,-71.06025
109,ANTONIO'S ITALIANO CUCINA,286 Cambridge,Boston,MA,02114,Active,FS,Eating & Drinking,2006-12-07 13:34:35,16173673310,25272.0,42.360951,-71.06816
110,APizza- K1,80 Causeway,Boston,MA,02114,Active,FT,Eating & Drinking w/ Take Out,2020-02-26 10:42:05,16179363490,423633.0,0.0,0.0
111,APM Coffee,99 Kneeland,Boston,MA,02111,Active,FS,Eating & Drinking,2019-05-07 08:49:57,10000000000,420869.0,0.0,0.0
112,APPLEBEE'S NEIGHBORHOOD GRILL & BAR,11A Allstate,Dorchester,MA,02125,Active,FS,Eating & Drinking,2011-10-25 14:06:55,16174427139,172685.0,42.326047,-71.063611
113,April 23,222 Newbury,Boston,MA,02116,Active,FT,Eating & Drinking w/ Take Out,2019-07-05 13:40:58,18572946355,282093.0,42.34975,-71.08108
114,Aqua Pazza,135 Richmond,Boston,MA,02113,Active,FS,Eating & Drinking,2015-12-17 15:39:56,18573503105,352041.0,0.0,0.0
115,AQUITAINE,569 Tremont,Roxbury,MA,02118,Active,FS,Eating & Drinking,2006-12-07 13:34:59,16174248577,157437.0,42.343801,-71.07235
116,Arboretum Grill,4021 Washington,Roslindale,MA,02131,Active,FS,Eating & Drinking,2011-10-14 08:30:39,16173239100,145067.0,42.29201,-71.12244
117,ARCHIE'S NEW YORK DELI,93 Arch,Boston,MA,02110,Active,FT,Eating & Drinking w/ Take Out,2006-12-07 13:34:36,16173305145,161605.0,42.355042,-71.059128
118,Ariana Restaurant,123 Antwerp,Brighton,MA,02135,Active,FS,Eating & Drinking,2014-10-30 08:58:29,16172088072,343305.0,0.0,0.0
119,ARIS BARBEQUE,200 FANEUIL HALL MARKET,BOSTON,MA,02109,Active,FT,Eating & Drinking w/ Take Out,2007-04-12 10:00:27,16177422947,,0.0,0.0
120,Arizona B B Q,2360 Washington,Roxbury,MA,02119,Active,FT,Eating & Drinking w/ Take Out,2008-03-04 14:08:38,16174422999,144493.0,42.32937,-71.08446
121,Article 24,458 Western,Brighton,MA,02135,Active,FT,Eating & Drinking w/ Take Out,2015-09-29 11:28:01,16198236061,148210.0,42.36195,-71.14221
122,ARTU,6 Prince,Boston,MA,02113,Active,FS,Eating & Drinking,2006-12-07 13:34:23,16177424336,112966.0,42.36411,-71.05372
123,Arya Trattoria,253 Hanover,Boston,MA,02113,Active,FS,Eating & Drinking,2013-02-01 13:42:43,16177421276,69071.0,42.363223,-71.054789
124,Ascia Foods,100 Malcolm X,Roxbury,MA,02119,Active,FS,Eating & Drinking,2020-01-21 08:15:05,16179593031,340841.0,42.330905,-71.093373
125,Ashburton Cafe,1 Ashburton,Boston,MA,02114,Active,FS,Eating & Drinking,2007-04-06 13:51:49,16177994625,5052.0,42.359276,-71.062359
126,ASHMONT GRILL,555 Talbot,Dorchester,MA,02124,Active,FS,Eating & Drinking,2006-12-07 13:36:25,18254300000,156895.0,42.286091,-71.064728
127,Asia Wok,44 Harvard,Allston,MA,02134,Active,FT,Eating & Drinking w/ Take Out,2018-12-24 11:56:19,16177826714,354426.0,0.0,0.0
128,ASIAN GARDEN RESTAURANT INC.,28 HARRISON ,BOSTON,MA,02111,Active,FS,Eating & Drinking,2006-12-07 13:35:32,16174263348,,0.0,0.0
129,Asian Thai Eatery,1064 River,Hyde Park,MA,02136,Active,FS,Eating & Drinking,2017-12-21 11:17:28,16173614448,158305.0,42.258784,-71.117741
130,Assaggio,29 Prince,Boston,MA,02113,Active,FS,Eating & Drinking,2017-08-09 10:46:42,16172277380,360658.0,0.0,0.0
131,Assembly on 2,100 Summer,Boston,MA,02110,Active,FS,Eating & Drinking,2017-08-30 11:25:05,16175742178,131978.0,42.353633,-71.057366
132,Asta,47 Massachusetts,Boston,MA,02215,Active,FS,Eating & Drinking,2012-08-29 10:49:31,16178234664,422671.0,0.0,0.0
133,At Union,174 HARVARD ,BOSTON,MA,02134,Active,FS,Eating & Drinking,2009-07-10 09:05:04,16172444909,,0.0,0.0
134,Athan's European Bakery,407 Washington,Brighton,MA,02135,Active,FS,Eating & Drinking,2006-12-07 13:36:26,16177830313,352135.0,0.0,0.0
135,ATLANTIC FISH COMPANY,761 Boylston,Boston,MA,02116,Active,FS,Eating & Drinking,2011-04-04 14:50:20,16175364200,18393.0,42.34935,-71.08121
136,Atlantico,50 Malden,Roxbury,MA,02118,Active,FS,Eating & Drinking,2019-12-10 15:38:39,16178186588,419532.0,0.0,0.0
137,ATRIUM CAFE/HARVARD MED.SCHOOL,260 Longwood,Boston,MA,02115,Active,FS,Eating & Drinking,2006-12-07 13:36:23,16174326169,157056.0,42.336981,-71.10415
138,Au Bon Pain,133 Brookline,Boston,MA,02215,Active,FS,Eating & Drinking,2014-03-21 11:27:06,16174232100,352517.0,0.0,0.0
139,Au Bon Pain,17 Blackfan,Boston,MA,02115,Active,FT,Eating & Drinking w/ Take Out,2014-02-10 10:02:22,16178975079,153922.0,42.337388,-71.106281
140,Au Bon Pain,26 Park,Boston,MA,02116,Active,FT,Eating & Drinking w/ Take Out,2021-06-15 15:29:36,16174390116,156025.0,42.351363,-71.069099
141,Au Bon Pain,75 Francis,Boston,MA,02115,Active,FT,Eating & Drinking w/ Take Out,2006-12-07 13:34:01,16178975079,158148.0,42.336106,-71.10748
142,Au Bon Pain,800 Washington,Boston,MA,02111,Active,FT,Eating & Drinking w/ Take Out,2014-03-19 13:52:30,16178975072,145764.0,42.349591,-71.063586
143,Au Bon Pain,90 Oliver,Boston,MA,02110,Active,FT,Eating & Drinking w/ Take Out,2021-06-15 15:25:18,16174390116,156963.0,42.35635,-71.051804
144,Audubon,838 Beacon,Boston,MA,02215,Active,FS,Eating & Drinking,2014-04-01 12:57:14,16174211910,12259.0,42.34741,-71.10321
145,Auntie Anne's Pretzels/ Carvel,700 Atlantic,Boston,MA,02110,Active,FT,Eating & Drinking w/ Take Out,2021-07-08 10:45:17,16318975251,156723.0,0.0,0.0
146,AUNTIE VIE'S BAKERY & CAFE,538 Dudley,Roxbury,MA,02119,Active,FT,Eating & Drinking w/ Take Out,2019-05-13 13:49:38,10000000000,164576.0,42.321647,-71.072046
147,Avana Express Bar,40 Harrison,Boston,MA,02111,Active,FT,Eating & Drinking w/ Take Out,2013-05-13 14:02:15,19173531653,340723.0,42.351624,-71.061017
148,Avana Market Place,40 Harrison,Boston,MA,02111,Active,FT,Eating & Drinking w/ Take Out,2009-04-03 10:23:20,16174263331,69834.0,42.351664,-71.060968
149,Azama Grill,44 Harvard,Allston,MA,02134,Active,FT,Eating & Drinking w/ Take Out,2009-12-30 08:22:42,16174477646,70391.0,42.354462,-71.13227
150,B & G OYSTERS LTD.,550 Tremont,Roxbury,MA,02116,Active,FS,Eating & Drinking,2006-12-07 13:35:51,16174230550,137629.0,42.343895,-71.071263
151,B I DEACONESS/WEST END CAFE,1 DEACONESS,BOSTON,MA,02215,Active,FT,Eating & Drinking w/ Take Out,2006-12-07 13:35:29,10006675634,,0.0,0.0
152,B U-100 Baystate Dining Cafe/Multi Purpose,100 Bay State,Boston,MA,02215,Active,FS,Eating & Drinking,2011-09-20 14:52:39,16173532947,342937.0,0.0,0.0
153,B. Good,100 Terminal,East Boston,MA,02128,Active,FS,Eating & Drinking,2019-05-09 14:53:44,10000000000,341357.0,42.364539,-71.021817
154,B. Good Burger,200 Terminal,East Boston,MA,02128,Active,FT,Eating & Drinking w/ Take Out,2018-08-14 14:27:45,17163679342,341353.0,0.0,0.0
155,B. U. Einsteins Bagels,685 Commonwealth,Boston,MA,02215,Active,FT,Eating & Drinking w/ Take Out,2006-12-07 13:34:57,16173532947,157907.0,42.350117,-71.104278
156,B.H.C.C. Coffee Shop,250 Rutherford,Charlestown,MA,02129,Active,FT,Eating & Drinking w/ Take Out,2018-08-28 10:50:39,16172282335,395006.0,0.0,0.0
157,B.U. George Sherman Union,775 COMMONWEALTH ,BOSTON,MA,02215,Active,FS,Eating & Drinking,2006-12-07 13:34:22,16173532947,,0.0,0.0
158,B.U. HARRY AGGANIS ARENA(FS),925 COMMONWEALTH ,BOSTON,MA,02215,Active,FS,Eating & Drinking,2006-12-07 13:36:10,10000000000,,0.0,0.0
159,B.U. HARRY AGGANIS ARENA/STANDS,925 COMMONWEALTH ,BOSTON,MA,02215,Active,FS,Eating & Drinking,2006-12-07 13:36:10,10000000000,,0.0,0.0
160,B.U. HEALTHY BLENDS,915 COMMONWEALTH ,BOSTON,MA,02215,Active,FT,Eating & Drinking w/ Take Out,2006-12-07 13:36:15,16173532947,,0.0,0.0
161,B.U. PUB,225 BAY STATE,BOSTON,MA,02215,Active,FS,Eating & Drinking,2006-12-07 13:34:22,16173532947,,0.0,0.0
162,B.U. SCHOOL OF LAW CART,765 COMMONWEALTH ,BOSTON,MA,02215,Active,FT,Eating & Drinking w/ Take Out,2006-12-07 13:34:38,16173532947,,0.0,0.0
163,B.U. SCHOOL OF MANAGEMENT,595 Commonwealth,Boston,MA,02215,Active,FS,Eating & Drinking,2006-12-07 13:35:42,16173532947,155950.0,42.349583,-71.099785
164,B.U. WARREN TOWER CAFE,700 COMMONWEALTH ,BOSTON,MA,02115,Active,FS,Eating & Drinking,2006-12-07 13:34:22,16173532947,,0.0,0.0
165,B.U. WEST CAMPUS,278 Babcock,Allston,MA,02134,Active,FS,Eating & Drinking,2006-12-07 13:34:22,16173532947,7411.0,42.3532,-71.1221
166,B.U.Dining Srvices-1st fl.,100 Bay State,Boston,MA,02215,Active,FS,Eating & Drinking,2011-09-20 15:16:01,16173532947,342937.0,0.0,0.0
167,B.U.Dining Srvices-2nd fl.,100 Bay State,Boston,MA,02215,Active,FS,Eating & Drinking,2011-09-20 15:19:37,16173532947,342937.0,0.0,0.0
168,Bab AlYemen,468 Commonwealth,Boston,MA,02215,Active,FS,Eating & Drinking,2021-07-06 10:47:01,16175996537,415730.0,0.0,0.0
169,BACCO RISTORANTE & BAR,107 Salem,Boston,MA,02113,Active,FS,Eating & Drinking,2006-12-07 13:35:17,16176292622,121692.0,42.36418,-71.05538
170,Back Bay Social Club,867 Boylston,Boston,MA,02116,Active,FS,Eating & Drinking,2010-06-18 12:55:11,16175232727,18414.0,42.34874,-71.083445
171,Back Deck,10 West,Boston,MA,02111,Active,FS,Eating & Drinking,2011-09-15 12:56:14,16174261266,172982.0,42.354426,-71.062191
172,BACKWOODS PIZZA,539 Dudley,Roxbury,MA,02119,Active,FT,Eating & Drinking w/ Take Out,2021-01-14 09:15:29,16174457400,156012.0,42.321739,-71.072511
173,Bailey & Sage,131 Dartmouth,Boston,MA,02116,Active,FT,Eating & Drinking w/ Take Out,2022-01-14 10:50:26,18572770695,46311.0,42.34682,-71.07543
174,Bailey and Sage,100 Federal,Boston,MA,02110,Active,FT,Eating & Drinking w/ Take Out,2018-01-22 08:10:04,18573503032,57150.0,42.35477,-71.05613
175,Bain Capital (40th Fl),200 Clarendon,Boston,MA,02116,Active,FS,Eating & Drinking,2011-05-06 11:09:25,16175162000,33209.0,42.34921,-71.07513
176,Balance Patch,1031 Commonwealth,Boston,MA,02215,Active,FS,Eating & Drinking,2016-11-16 10:19:46,10000000000,414826.0,0.0,0.0
177,BALE RESTAURANT,1052 Dorchester,Dorchester,MA,02125,Active,FT,Eating & Drinking w/ Take Out,2006-12-07 13:35:43,16174799006,156182.0,42.314791,-71.056611
178,Bamboo Thai Restaurant,1616 Commonwealth,Boston,MA,02135,Active,FS,Eating & Drinking,2016-06-17 11:47:24,16178988846,408957.0,0.0,0.0
179,Bambu,287 Adams,Dorchester,MA,02122,Active,FS,Eating & Drinking,2016-12-12 11:23:18,15088084895,421205.0,0.0,0.0
180,Ban Toi Restaurant,1035 Dorchester,Dorchester,MA,02125,Active,FS,Eating & Drinking,2019-05-08 10:15:13,18573616945,155971.0,42.315341,-71.056869
181,BANGKOK BISTRO,433 Washington,Brighton,MA,02135,Active,FT,Eating & Drinking w/ Take Out,2013-03-07 10:48:01,16177109104,143543.0,42.349345,-71.156794
182,Bangkok Pinto,1041 Tremont,Mission Hill,MA,02120,Active,FT,Eating & Drinking w/ Take Out,2015-09-18 12:17:44,16174425555,136794.0,42.336599,-71.085748
183,Banh Mi Huong Que,696 Washington,Boston,MA,02111,Active,FT,Eating & Drinking w/ Take Out,2020-11-09 12:11:39,16179590309,158284.0,42.351119,-71.062679
184,Banh Mi Oi,1759 Centre,West Roxbury,MA,02132,Active,FT,Eating & Drinking w/ Take Out,2020-06-23 11:26:19,16173250946,351854.0,0.0,0.0
185,Banh Mi Or,44 School,Boston,MA,02108,Active,FT,Eating & Drinking w/ Take Out,2021-12-02 08:37:55,17813784022,356636.0,0.0,0.0
186,Bani Restaurant,4541 Washington,Roslindale,MA,02131,Active,FS,Eating & Drinking,2006-12-07 13:36:15,16174690294,145300.0,42.278345,-71.137197
187,Banners Kitchen and Tap,80 Causeway,Boston,MA,02114,Active,FS,Eating & Drinking,2019-02-01 10:12:59,10000000000,340676.0,42.365678,-71.061705
188,Banyan Bar & Refuge,537 Tremont,Boston,MA,02116,Active,FS,Eating & Drinking,2015-03-27 10:03:28,16178694951,340800.0,42.344711,-71.071404
189,Bar A Vin 1855,259 Newbury,Boston,MA,02116,Active,FS,Eating & Drinking,2019-01-09 09:31:27,16175874222,168058.0,42.349646,-71.083221
190,Bar Lyon,1750 Washington,Boston,MA,02118,Active,FS,Eating & Drinking,2017-09-28 14:21:38,16177332393,370552.0,0.0,0.0
191,Bar Mezzana,360 Harrison,Roxbury,MA,02118,Active,FS,Eating & Drinking,2015-12-11 14:10:56,16175301770,419370.0,0.0,0.0
192,Bar Volpe,170 Broadway,South Boston,MA,02127,Active,FS,Eating & Drinking,2021-09-23 10:38:50,16173723190,21394.0,42.3405,-71.05288
193,Barcelona Restaurant,503 Tremont,Boston,MA,02116,Active,FS,Eating & Drinking,2014-02-27 12:16:50,12032991415,341128.0,42.344923,-71.070755
194,BARNES & NOBLE BOOKSELLERS (R),800 Boylston,Boston,MA,02199,Active,FS,Eating & Drinking,2006-12-07 13:35:44,15163387007,157244.0,42.347296,-71.081457
195,BARNEY'S GRILL,299 Havre,East Boston,MA,02128,Active,FS,Eating & Drinking,2006-12-07 13:35:06,10000000000,156023.0,42.376526,-71.033798
196,BARRY'S BOOTCAMP,10 Huntington,Boston,MA,02116,Active,FS,Eating & Drinking,2018-04-27 11:41:20,19787588311,76236.0,42.348545,-71.077314
197,BARRY'S BOOTCAMP,38 Chauncy,Boston,MA,02111,Active,FS,Eating & Drinking,2013-04-16 11:18:00,10000000000,205525.0,42.3538,-71.05977
198,Bartaco,25 Thomson,Boston,MA,02210,Active,FS,Eating & Drinking,2018-02-12 11:49:30,10000000000,355868.0,0.0,0.0
199,Basho Express,685 Commonwealth,Boston,MA,02215,Active,FT,Eating & Drinking w/ Take Out,2015-10-09 09:57:53,16172307017,41223.0,42.350149,-71.104511
200,Basho Japanese Brasserie,100 Legends,Boston,MA,02114,Active,FS,Eating & Drinking,2016-10-04 09:56:45,16172621338,,0.0,0.0
201,Basho Japanese Brasserie,1310 Boylston,Boston,MA,02215,Active,FS,Eating & Drinking,2009-10-29 13:22:25,16178598886,340893.0,42.344147,-71.098428
202,Basho Japanese Sushi@B.U.(G.S.U.),775 Commonwealth,Boston,MA,02215,Active,FT,Eating & Drinking w/ Take Out,2013-02-28 08:06:53,16172621338,157395.0,42.350873,-71.108963
203,Basile- Fine Italian Kitchen,162 Columbus,Boston,MA,02116,Active,FS,Eating & Drinking,2019-05-08 08:40:59,16173500007,156280.0,42.349256,-71.070608
204,Battery Wharf Hotel,3 Battery,Boston,MA,02109,Active,FS,Eating & Drinking,2017-04-13 14:12:56,16179949000,345275.0,0.0,0.0
205,BATTERY WHARF HOTEL BOSTON WATERFRONT,2 Battery,Boston,MA,02109,Active,FS,Eating & Drinking,2015-12-18 15:16:51,16179949000,172851.0,42.367173,-71.050159
206,BB.Q Chicken,636 Beacon,Boston,MA,02215,Active,FS,Eating & Drinking,2021-07-30 13:29:27,10000000000,352141.0,0.0,0.0
207,BBQ Chicken,182 Harvard,Boston,MA,02134,Active,FS,Eating & Drinking,2017-02-23 12:41:09,16177873003,404394.0,0.0,0.0
208,Beacon Cafe @Univ. of Mass Boston,100 William T Morrissey,Dorchester,MA,02125,Active,FS,Eating & Drinking,2013-10-18 10:53:38,16172875082,155810.0,42.313144,-71.038947
209,BEACON HILL HOTEL & BISTRO,25 Charles,Boston,MA,02114,Active,FS,Eating & Drinking,2019-02-15 13:37:36,16177237575,364451.0,0.0,0.0
210,Beacon Hill Pub,147 Charles,Boston,MA,02114,Active,FS,Eating & Drinking,2018-12-31 08:38:17,16179083110,163174.0,42.36045,-71.070563
211,Bean & Leaf Cafe,20 Custom House,Boston,MA,02111,Active,FT,Eating & Drinking w/ Take Out,2006-12-07 13:35:36,15089420923,157482.0,42.358135,-71.053058
212,BEANTOWN BURRITO,340 Longwood,Boston,MA,02115,Active,FT,Eating & Drinking w/ Take Out,2006-12-07 13:35:02,17813567770,156613.0,42.338284,-71.106989
213,Beantown Pastrami,100 Hanover,Boston,MA,02108,Active,FT,Eating & Drinking w/ Take Out,2015-02-23 14:32:56,16179430705,355634.0,0.0,0.0
214,Beantown Pho & Grill,272 Newbury,Boston,MA,02116,Active,FS,Eating & Drinking,2014-05-05 12:20:44,16174709940,101485.0,42.34912,-71.08342
215,Beantown Pub/Ziggy's Coffee Bar,100 Tremont,Boston,MA,02108,Active,FT,Eating & Drinking w/ Take Out,2006-12-07 13:35:05,16174260111,157329.0,42.357232,-71.060979
216,Beijing Cafe,728 Commonwealth,Boston,MA,02115,Active,FS,Eating & Drinking,2006-12-07 13:35:26,18574982790,,0.0,0.0
217,Bell In Hand,45 Union,Boston,MA,02108,Active,FS,Eating & Drinking,2006-12-07 13:34:00,16172272098,139294.0,42.3616,-71.05706
218,Bella Vista,288 Hanover,Boston,MA,02113,Active,FS,Eating & Drinking,2007-04-01 08:35:15,10000000000,69101.0,42.36402,-71.0545
219,Ben & Jerry's,174 Newbury,Boston,MA,02116,Active,FT,Eating & Drinking w/ Take Out,2006-12-07 13:35:47,16175365456,101380.0,42.35031,-71.079
220,Ben & Jerry's,300 Faneuil Hall Marketplace,Boston,MA,02109,Active,FT,Eating & Drinking w/ Take Out,2019-03-07 11:31:38,16175365256,351051.0,0.0,0.0
221,Ben & Jerry's,77 Seaport,Boston,MA,02210,Active,FT,Eating & Drinking w/ Take Out,2017-01-12 10:40:36,16175365456,350786.0,0.0,0.0
222,Ben & Jerry's (Kiosk),800 Boylston,Boston,MA,02199,Active,FT,Eating & Drinking w/ Take Out,2017-01-12 10:23:39,16175365456,157244.0,42.347296,-71.081457
223,Ben Cotto,357 Hanover,Boston,MA,02113,Active,FS,Eating & Drinking,2015-05-07 13:52:18,16173195070,69120.0,42.36466,-71.05337
224,Benevento's,111 Salem,Boston,MA,02113,Active,FS,Eating & Drinking,2009-07-24 10:05:55,16175937735,121696.0,42.36427,-71.05536
225,Bennetts Sandwich Shop,84 Peterborough,Boston,MA,02215,Active,FS,Eating & Drinking,2017-03-08 11:36:39,10000000000,109880.0,42.343135,-71.098841
226,Berkeley Bistro,200 Berkeley,Boston,MA,02116,Active,FT,Eating & Drinking w/ Take Out,2019-10-18 14:20:41,10000000000,156187.0,42.35006,-71.072919
227,BERKELEY PERK CAFE,69 Berkeley,Boston,MA,02116,Active,FT,Eating & Drinking w/ Take Out,2006-12-07 13:35:00,16174260673,15038.0,42.34678,-71.07061
228,Berklee College of Music,160 Massachusetts,Boston,MA,02115,Active,FS,Eating & Drinking,2013-01-07 12:46:12,16177478112,343903.0,0.0,0.0
229,Berkshire Farms Market,200 Terminal,East Boston,MA,02128,Active,FT,Eating & Drinking w/ Take Out,2013-11-08 09:59:52,10000000000,341353.0,0.0,0.0
230,Berkshire Farms Market A,500 Terminal,East Boston,MA,02128,Active,FT,Eating & Drinking w/ Take Out,2019-01-25 12:56:26,16175675700,341351.0,0.0,0.0
231,BERTUCCI'S,633 V F W,WEST ROXBURY,MA,02132,Active,FS,Eating & Drinking,2006-12-07 13:34:22,15083512577,,0.0,0.0
232,Best Fried Chicken,1198 Blue Hill,Mattapan,MA,02126,Active,FT,Eating & Drinking w/ Take Out,2021-04-30 15:46:42,16173223035,156964.0,42.283694,-71.091958
233,Beth Israel Deaconess,330 Brookline,Boston,MA,02115,Active,FS,Eating & Drinking,2007-04-13 08:21:31,10000000000,22096.0,42.33982,-71.10568
234,Better Bagels,77 Seaport,Boston,MA,02210,Active,FT,Eating & Drinking w/ Take Out,2017-01-04 10:57:16,18575403177,350786.0,0.0,0.0
235,Bianco & Sons Sausage- K15,80 Causeway,Boston,MA,02114,Active,FT,Eating & Drinking w/ Take Out,2020-02-26 10:04:08,17812894688,423633.0,0.0,0.0
236,Biddy Earlys,141 Pearl,Boston,MA,02110,Active,FS,Eating & Drinking,2006-12-07 13:35:20,10000000000,108787.0,42.35464,-71.05374
237,BIG DADDY HOT DOGS,10 Whittier,Boston,MA,02114,Active,FT,Eating & Drinking w/ Take Out,2019-06-18 09:45:25,16179572755,157202.0,42.365678,-71.066648
238,BIG DADDY'S PIZZA,436 WESTERN ,BRIGHTON,MA,02135,Active,FT,Eating & Drinking w/ Take Out,2006-12-07 13:36:34,16178032212,,0.0,0.0
239,Big Night Live,80 Causeway,Boston,MA,02114,Active,FS,Eating & Drinking,2019-10-10 16:38:34,16178965222,340676.0,42.365678,-71.061705
240,Bijou Night Club,51 Stuart,Boston,MA,02116,Active,FS,Eating & Drinking,2011-06-24 09:46:39,16177924407,155868.0,42.351234,-71.064128
241,Billares Colombia,16 Bennington,East Boston,MA,02128,Active,FS,Eating & Drinking,2013-03-01 12:53:46,16175695740,14624.0,42.37529,-71.0383
242,Bill's Bar,7 Lansdowne,Boston,MA,02215,Active,FS,Eating & Drinking,2006-12-07 13:34:51,16175232727,84011.0,42.34733,-71.09499
243,BILLY TSE RESTAURANT,240 Commercial,Boston,MA,02109,Active,FS,Eating & Drinking,2006-12-07 13:34:45,16179665334,36254.0,42.36385,-71.05146
244,Billy's Sub Shop,57 Berkeley,Boston,MA,02116,Active,FT,Eating & Drinking w/ Take Out,2006-12-07 13:35:32,16174261822,15033.0,42.34659,-71.07051
245,BILLY'S TEXAS B.B.Q.,530 Washington,Dorchester,MA,02124,Active,FS,Eating & Drinking,2006-12-07 13:34:49,16172886161,146103.0,42.29298,-71.07162
246,Bin 26 Enoteca,26 Charles,Boston,MA,02114,Active,FS,Eating & Drinking,2007-08-14 14:45:28,16175122550,158228.0,42.356745,-71.069988
247,BIRCH STREET BISTRO,14 Birch,West Roxbury,MA,02132,Active,FS,Eating & Drinking,2006-12-07 13:35:47,16179225666,15542.0,42.26346,-71.15857
248,BISHOP'S MEDITERRANEAN,70 Staniford,Boston,MA,02114,Active,FT,Eating & Drinking w/ Take Out,2014-01-31 13:14:54,16177423300,157194.0,42.362733,-71.06423
249,Bisq Meat & Sandwiches,201 Brookline,Boston,MA,02215,Active,FT,Eating & Drinking w/ Take Out,2019-04-17 13:43:12,16174603168,340960.0,42.344649,-71.102201
250,Bistro du Midi,272 Boylston,Boston,MA,02116,Active,FS,Eating & Drinking,2006-12-07 13:35:47,16174267878,157796.0,42.351859,-71.069669
251,Bitez,914 Morton,Mattapan,MA,02126,Active,FT,Eating & Drinking w/ Take Out,2022-01-13 11:26:12,16178206485,351026.0,0.0,0.0
252,BK's Pub,4272 Washington,Roslindale,MA,02131,Active,FS,Eating & Drinking,2006-12-07 13:33:56,16173250928,158144.0,42.285083,-71.129349
253,Black Lamb,571 Tremont,Roxbury,MA,02118,Active,FS,Eating & Drinking,2019-05-14 12:59:55,16174708663,351697.0,0.0,0.0
254,Black Rose,160 State,Boston,MA,02109,Active,FS,Eating & Drinking,2006-12-07 13:34:05,16177422286,130383.0,42.35944,-71.05379
255,Black Seeds,131 Tremont,Boston,MA,02111,Active,FS,Eating & Drinking,2006-12-07 13:34:50,16173380024,155952.0,42.356002,-71.062138
256,Blackbird,100 Holton,Brighton,MA,02135,Active,FT,Eating & Drinking w/ Take Out,2018-04-25 11:17:46,16174829000,351912.0,0.0,0.0
257,Blackbird Donuts,1321 Boylston,Boston,MA,02215,Active,FT,Eating & Drinking w/ Take Out,2017-01-12 12:57:13,16174829000,354118.0,0.0,0.0
258,Blackbird Doughnuts,175 Cambridge,Boston,MA,02114,Active,FT,Eating & Drinking w/ Take Out,2020-03-13 10:11:57,16174829000,363091.0,0.0,0.0
259,Blackbird Doughnuts & Sally's Sandwiches,460 Tremont,Roxbury,MA,02116,Active,FT,Eating & Drinking w/ Take Out,2014-09-26 10:08:52,16177970333,156997.0,42.345792,-71.069134
260,Blackmoor Bar & Kitchen,1 Chelsea,Charlestown,MA,02129,Active,FS,Eating & Drinking,2015-11-16 11:26:28,16172123580,163254.0,42.3712,-71.061707
261,Blake's Boston,280 Friend,Boston,MA,02114,Active,FS,Eating & Drinking,2018-06-25 10:28:20,16177205544,344155.0,0.0,0.0
262,Blaze Fast Fired Pizza,1282 Boylston,Boston,MA,02215,Active,FS,Eating & Drinking,2016-04-12 10:28:00,18605392253,347565.0,0.0,0.0
263,Blaze Pizza,123 Stuart,Boston,MA,02116,Active,FS,Eating & Drinking,2016-09-20 11:32:00,18605392253,156379.0,42.351378,-71.065729
264,Blaze Pizza,961 Commonwealth,Boston,MA,02215,Active,FS,Eating & Drinking,2017-07-19 11:14:32,18605392253,41311.0,42.35192,-71.11908
265,Bleacher Bar,70 Lansdowne,Boston,MA,02215,Active,FS,Eating & Drinking,2008-04-02 13:17:20,16172622424,156998.0,42.347051,-71.098327
266,Blend,1310 DORCHESTER ,DORCHESTER,MA,02122,Active,FS,Eating & Drinking,2006-12-07 13:34:16,16172658846,,0.0,0.0
267,Blu,4 Avery,Boston,MA,02111,Active,FS,Eating & Drinking,2014-10-22 14:53:19,16173578550,7254.0,42.35307,-71.06292
268,Blue Asia Cafe,101 Brighton,Allston,MA,02134,Active,FS,Eating & Drinking,2009-10-08 10:36:56,17812673366,20067.0,42.353081,-71.130624
269,Blue Bottle Coffee,163 Newbury,Boston,MA,02116,Active,FT,Eating & Drinking w/ Take Out,2019-07-31 11:39:22,10000000000,101369.0,42.35084,-71.07879
270,Blue Cross Blue Sheild of Ma. Cafe,101 Huntington,Boston,MA,02199,Active,FS,Eating & Drinking,2013-11-15 12:40:18,16172464658,340845.0,42.346865,-71.080632
271,Blue Hill House of Pizza,161 Blue Hill,Roxbury,MA,02119,Active,FT,Eating & Drinking w/ Take Out,2018-11-09 12:30:04,16174450044,16335.0,42.31931,-71.07795
272,Blue Mountain Jamaican Restaurant,884 Morton,Dorchester,MA,02124,Active,FS,Eating & Drinking,2019-07-09 14:11:16,16175952996,97818.0,42.281,-71.08457
273,Blue Nile,389 Centre,Jamaica Plain,MA,02130,Active,FS,Eating & Drinking,2016-10-05 13:44:21,16175226453,352030.0,0.0,0.0
274,BLUE STAR RESTAURANT,11 Corinth,Roslindale,MA,02131,Active,FS,Eating & Drinking,2006-12-07 13:35:59,16173239638,42862.0,42.28641,-71.13043
275,Blue Yama,418 Market,Brighton,MA,02135,Active,FS,Eating & Drinking,2020-01-10 09:51:22,16175626333,158260.0,42.349342,-71.153159
276,Bluestone Lane,125 High,Boston,MA,02110,Active,FT,Eating & Drinking w/ Take Out,2019-04-10 10:02:51,10000000000,166214.0,42.355263,-71.053133
277,Blunch,59 EAST SPRINGFIELD,BOSTON,MA,02136,Active,FT,Eating & Drinking w/ Take Out,2007-12-05 15:00:08,16179057709,,0.0,0.0
278,BO9/CO9/Y7,4 Jersey,Boston,MA,02215,Active,FT,Eating & Drinking w/ Take Out,2011-03-08 09:03:12,16175366683,156417.0,42.346723,-71.09868
279,Boba Me,1520 Tremont,Mission Hill,MA,02120,Active,FT,Eating & Drinking w/ Take Out,2018-11-20 12:07:02,17815212827,137235.0,42.33221,-71.09977
280,BoBo Cafe,135 Massachusetts,Boston,MA,02215,Active,FT,Eating & Drinking w/ Take Out,2019-07-26 12:01:47,18572946355,364983.0,0.0,0.0
281,Bodega Canal,57 Canal,Boston,MA,02114,Active,FS,Eating & Drinking,2017-11-15 09:58:51,16177853046,158061.0,42.363866,-71.059131
282,Bohemios Restaurant,30 Bennington,East Boston,MA,02128,Active,FT,Eating & Drinking w/ Take Out,2015-12-11 13:52:33,16175617777,156396.0,42.37539,-71.038018
283,Boloco,133 Federal,Boston,MA,02110,Active,FT,Eating & Drinking w/ Take Out,2006-12-07 13:36:32,16172662200,57153.0,42.35426,-71.0566
284,Boloco,283 LONGWOOD ,BOSTON,MA,02115,Active,FT,Eating & Drinking w/ Take Out,2006-12-07 13:36:32,16172662200,,0.0,0.0
285,Boloco,48 Congress,Boston,MA,02109,Active,FT,Eating & Drinking w/ Take Out,2007-08-03 10:00:05,16172662200,42117.0,42.35798,-71.05599
286,Boloco - Berklee,1080 Boylston,Boston,MA,02215,Active,FT,Eating & Drinking w/ Take Out,2009-11-05 09:38:53,16172662200,17944.0,42.346952,-71.088046
287,Boloco Inspired Burritos,2 Park,Boston,MA,02116,Active,FT,Eating & Drinking w/ Take Out,2008-09-05 08:31:12,16172662200,107187.0,42.352269,-71.067108
288,Bon Appetit Creperie,100 Hanover,Boston,MA,02108,Active,FT,Eating & Drinking w/ Take Out,2018-05-24 14:12:21,16179734909,355634.0,0.0,0.0
289,BON APPETIT RESTAURANT,1138 Blue Hill,Dorchester,MA,02124,Active,FT,Eating & Drinking w/ Take Out,2006-12-07 13:34:16,16178255544,157568.0,42.285777,-71.09125
290,Bon Me,100 Hanover,Boston,MA,02108,Active,FT,Eating & Drinking w/ Take Out,2015-06-18 10:55:14,16174707545,355634.0,0.0,0.0
291,Bon Me,415 Brookline,Boston,MA,02215,Active,FS,Eating & Drinking,2017-11-22 11:54:06,16174707545,22102.0,42.338699,-71.107791
292,Bon Me,441 Stuart,Boston,MA,02116,Active,FS,Eating & Drinking,2017-03-23 10:16:21,16175100924,131663.0,42.348624,-71.075972
293,Bon Me Restaurant,313 Congress,Boston,MA,02210,Active,FT,Eating & Drinking w/ Take Out,2014-04-22 14:08:01,16179421656,42097.0,42.35111,-71.0502
294,Bonapita,51 Franklin,Boston,MA,02110,Active,FT,Eating & Drinking w/ Take Out,2013-10-02 11:07:04,14014515538,238222.0,42.35537,-71.05877
295,Bonapita,77 Spring,West Roxbury,MA,02132,Active,FS,Eating & Drinking,2018-07-02 10:33:58,14014515538,341216.0,42.277765,-71.16403
296,Bonchon Allston,101 Brighton,Allston,MA,02134,Active,FS,Eating & Drinking,2012-02-08 11:03:55,16172548888,20067.0,42.353081,-71.130624
297,Bonne Chance Cafe,77 Canal,Boston,MA,02114,Active,FS,Eating & Drinking,2010-07-22 08:19:57,16177423115,155876.0,42.364196,-71.059521
298,Bootleg Special,400 Tremont,Roxbury,MA,02116,Active,FS,Eating & Drinking,2017-08-01 11:21:51,16179016671,421270.0,0.0,0.0
299,BOS' Sichuan Taste,204 Harvard,Allston,MA,02134,Active,FS,Eating & Drinking,2021-06-29 12:01:31,16175667344,157764.0,42.349958,-71.130478
300,BOSTON & MAINE FISH CO.,200 Faneuil Hall Market,Boston,MA,02109,Active,FT,Eating & Drinking w/ Take Out,2007-03-07 11:11:43,16175902205,,0.0,0.0
301,BOSTON BACK BAY HILTON,40 Dalton,Boston,MA,02115,Active,FS,Eating & Drinking,2006-12-07 13:35:06,16172361100,45831.0,42.34645,-71.08526
302,Boston Bagel Company,753 Broadway,South Boston,MA,02127,Active,FS,Eating & Drinking,2017-12-20 12:37:24,18574964168,164672.0,42.335436,-71.035227
303,Boston Beer Works (Pier C),300 LOGAN AIRPORT TRMNL C,EAST BOSTON,MA,02128,Active,FS,Eating & Drinking,2008-02-25 09:47:56,14157307532,,0.0,0.0
304,Boston Bowl,820 WM T MORRISSEY ,DORCHESTER,MA,02122,Active,FS,Eating & Drinking,2006-12-07 13:33:55,16172879100,,0.0,0.0
305,Boston Burger,1100 Boylston,Boston,MA,02215,Active,FS,Eating & Drinking,2011-09-09 12:59:56,16175158752,17996.0,42.346842,-71.088506
306,Boston Celtics Practice Facility Dining,38 Guest,Brighton,MA,02135,Active,FS,Eating & Drinking,2018-03-12 13:13:52,16175236050,421469.0,0.0,0.0
307,Boston Chops,1375 Washington,Roxbury,MA,02118,Active,FS,Eating & Drinking,2012-12-20 09:36:04,16172275011,352102.0,0.0,0.0
308,Boston Chowda Co.,300 FANEUIL HALL MARKET,BOSTON,MA,02109,Active,FT,Eating & Drinking w/ Take Out,2007-03-25 11:13:10,16177424441,,0.0,0.0
309,BOSTON COLLEGE CLUB,100 Federal,Boston,MA,02110,Active,FS,Eating & Drinking,2006-12-07 13:34:57,16179462828,57150.0,42.35477,-71.05613
310,BOSTON COLLEGE WALSH HALL,150 ST THOMAS MOORE,Brighton,MA,02135,Active,FS,Eating & Drinking,2007-03-23 16:15:53,16175523181,,0.0,0.0
311,Boston Crust,38 Brooks,Brighton,MA,02134,Active,FT,Eating & Drinking w/ Take Out,2020-04-09 11:56:01,16172025305,157199.0,42.35612,-71.162201
312,Boston Doner,55 Causeway,Boston,MA,02114,Active,FS,Eating & Drinking,2021-10-18 10:39:08,10000000000,352463.0,0.0,0.0
313,Boston Elite,60 Rowes Wharf,Downtown/Financial District,MA,02110,Active,FS,Eating & Drinking,2016-11-21 08:25:16,10000000000,,0.0,0.0
314,Boston Fried Chicken,998 Blue Hill,Dorchester,MA,02124,Active,FS,Eating & Drinking,2018-03-07 12:06:17,16174360077,351901.0,0.0,0.0
315,Boston Harbor Distillery,12R Ericsson,Dorchester,MA,02122,Active,FS,Eating & Drinking,2021-06-25 11:28:01,17817101720,165026.0,42.292109,-71.041037
316,Boston Harbor Hotel,70 Rowes,Boston,MA,02110,Active,FS,Eating & Drinking,2006-12-07 13:33:54,16178567750,155693.0,0.0,0.0
317,Boston Harbor Hotel Wharf Room,40 Rowes,Boston,MA,02110,Active,FS,Eating & Drinking,2017-04-13 12:43:25,16174397000,169324.0,42.356672,-71.049727
318,Boston House of Pizza,940 AMER LEGION ,ROSLINDALE,MA,02131,Active,FT,Eating & Drinking w/ Take Out,2006-12-07 13:33:51,16173231010,,0.0,0.0
319,Boston Kebab House,44 Kilby,Boston,MA,02109,Active,FS,Eating & Drinking,2012-05-31 08:52:31,16172276900,166756.0,42.358114,-71.055317
320,Boston Kitchen,300 Faneuil Hall Market,BOSTON,MA,02110,Active,FT,Eating & Drinking w/ Take Out,2007-03-31 11:53:01,16177238485,,0.0,0.0
321,Boston Kitchen Pizza,707 Washington,Boston,MA,02111,Active,FT,Eating & Drinking w/ Take Out,2009-10-23 11:30:15,16174820085,145758.0,42.35107,-71.06308
322,Boston Living Center,29 Stanhope,Boston,MA,02116,Active,FS,Eating & Drinking,2006-12-07 13:34:49,16172361012,155946.0,42.348579,-71.07304
323,Boston Lodge of Elks #10,1 Morrell,West Roxbury,MA,02132,Active,FS,Eating & Drinking,2020-08-18 11:43:59,16173271618,97474.0,42.27366,-71.1693
324,Boston Marriott Long Wharf - FS,296 State,Boston,MA,02110,Active,FS,Eating & Drinking,2006-12-07 13:35:01,16172270800,130424.0,42.36012,-71.05091
325,Fenway Johnnie's,96 Brookline,Boston,MA,02215,Active,FS,Eating & Drinking,2018-04-12 13:10:47,16179363098,422927.0,0.0,0.0
326,Boston Marriott Longwharf,296 State,Boston,MA,02110,Active,FS,Eating & Drinking,2006-12-07 13:35:01,16172270800,130424.0,42.36012,-71.05091
327,Boston Medical Center,830 Harrison,Roxbury,MA,02118,Active,FT,Eating & Drinking w/ Take Out,2018-12-12 10:18:01,16176388000,341783.0,0.0,0.0
328,Boston Medical Center (Shapiro Bldg.),830 Harrison,Roxbury,MA,02118,Active,FS,Eating & Drinking,2010-02-19 10:41:31,16174147003,341783.0,0.0,0.0
329,Boston News Cafe,28 State,Boston,MA,02109,Active,FS,Eating & Drinking,2010-10-21 08:57:31,16173067954,130422.0,42.35933,-71.05745
330,Boston News Cafe (90 Arch St.),90 Arch,Boston,MA,02110,Active,FT,Eating & Drinking w/ Take Out,2011-11-10 10:16:46,16173067954,340648.0,42.354732,-71.058368
331,Boston Opera House,539 Washington,Boston,MA,02111,Active,FT,Eating & Drinking w/ Take Out,2009-09-30 12:49:55,16172610065,157344.0,42.353999,-71.06237
332,Boston Park Plaza (Main Kitchen/Room Serv.),50 Park,Boston,MA,02116,Active,FS,Eating & Drinking,2010-12-20 08:36:34,16174262000,157315.0,42.351297,-71.069204
333,Boston Park Plaza Employee Cafeteria(3rdFl),50 Park,Boston,MA,02116,Active,FS,Eating & Drinking,2010-12-20 08:23:30,16174262000,157315.0,42.351297,-71.069204
334,Boston Pizza & Grill,533 Columbia,Dorchester,MA,02125,Active,FT,Eating & Drinking w/ Take Out,2013-07-26 10:57:30,16172166302,163553.0,42.315736,-71.065951
335,BOSTON SAIL LOFT,80 Atlantic,Boston,MA,02110,Active,FS,Eating & Drinking,2006-12-07 13:34:16,16172277280,156482.0,42.362516,-71.050719
336,Boston Scoops,200 Faneuil Hall Marketplace,Boston,MA,02109,Active,FT,Eating & Drinking w/ Take Out,2022-03-02 14:41:23,16175365456,156093.0,42.360199,-71.054798
337,Boston Shawarma,315 Huntington,Boston,MA,02115,Active,FS,Eating & Drinking,2009-03-11 09:14:26,16176700460,,0.0,0.0
338,Boston Soup Company- K3,80 Causeway,Boston,MA,02114,Active,FT,Eating & Drinking w/ Take Out,2020-02-13 12:59:40,16172011626,423633.0,0.0,0.0
339,Boston Symphony Orchestra,301 MASSACHUSETTS ,BOSTON,MA,02115,Active,FT,Eating & Drinking w/ Take Out,2006-12-07 13:34:07,16172661492,,0.0,0.0
340,BOSTON UNIVERSITY ATHLETIC CTR,285 BABCOCK,BOSTON,MA,02215,Active,FT,Eating & Drinking w/ Take Out,2006-12-07 13:34:17,16173532947,,0.0,0.0
341,Boston Yacht Haven,87 COMMERCIAL WHARF,BOSTON,MA,02110,Active,FS,Eating & Drinking,2008-09-15 15:27:04,16173675050,,0.0,0.0
342,Bostonia Public House,131 State,Boston,MA,02109,Active,FS,Eating & Drinking,2014-01-15 12:19:25,18572103912,130372.0,42.358974,-71.054235
343,BOURBON ST. CAFE,417 Washington,Boston,MA,02108,Active,FT,Eating & Drinking w/ Take Out,2006-12-07 13:35:09,10004518032,157146.0,42.35583,-71.0604
344,Bourbon Street Cafe,350 Longwood,Boston,MA,02115,Active,FT,Eating & Drinking w/ Take Out,2008-03-14 11:16:18,16175665204,156578.0,42.339072,-71.108098
345,BPL Newsfeed Cafe,700 Boylston,Boston,MA,02116,Active,FS,Eating & Drinking,2009-05-01 08:37:16,17819829333,156199.0,42.349231,-71.078658
346,Brasserie,560 Harrison,Roxbury,MA,02118,Active,FS,Eating & Drinking,2021-04-05 12:45:12,16174510560,69986.0,42.34081,-71.06744
347,Brassica Kitchen & Cafe,3710 Washington,Jamaica Plain,MA,02130,Active,FS,Eating & Drinking,2015-01-08 08:15:59,10000000000,144975.0,42.30025,-71.11308
348,Brato Brewhouse & Kitchen,190 Beacon,Brighton,MA,02135,Active,FS,Eating & Drinking,2018-11-21 10:27:06,10000000000,406105.0,0.0,0.0
349,BREADWINNERS/STARBUCK'S,595 Commonwealth,Boston,MA,02215,Active,FT,Eating & Drinking w/ Take Out,2006-12-07 13:34:50,16173532947,155950.0,42.349583,-71.099785
350,Bred,2255 Dorchester,Dorchester,MA,02124,Active,FT,Eating & Drinking w/ Take Out,2014-12-02 12:24:16,10000000000,351621.0,0.0,0.0
351,Breeze,130 Jersey,Boston,MA,02215,Active,FT,Eating & Drinking w/ Take Out,2017-11-17 12:17:55,10000000000,79709.0,42.34242,-71.09657
352,Brendan Behan Pub,378 Centre,Jamaica Plain,MA,02130,Active,FS,Eating & Drinking,2007-05-23 13:20:22,16176978964,28013.0,42.32199,-71.10926
353,Brewer's Fork,29 Bunker Hill,Charlestown,MA,02129,Active,FS,Eating & Drinking,2014-01-13 13:29:52,18575443502,350644.0,0.0,0.0
354,BRICCO Restaurant/Bakery,239 Hanover,Boston,MA,02113,Active,FS,Eating & Drinking,2006-12-07 13:34:49,16178809919,155944.0,42.363081,-71.054948
355,Brick House Pizza & Grille,256 Washington,Brighton,MA,02135,Active,FS,Eating & Drinking,2018-11-29 08:15:56,16177085340,171032.0,42.347878,-71.149719
356,Brigham & Womens Coffee Connection,75 Francis,Boston,MA,02115,Active,FT,Eating & Drinking w/ Take Out,2007-04-11 17:02:03,16177235269,158148.0,42.336106,-71.10748
357,BRIGHAM & WOMENS FAULKNER HOSPITAL,1153 CENTRE,JAMAICA PLAIN,MA,02130,Active,FS,Eating & Drinking,2006-12-07 13:33:55,16179837265,,0.0,0.0
358,BRIGHAM CIRCLE CHINESE FOOD,728 Huntington,Boston,MA,02115,Active,FT,Eating & Drinking w/ Take Out,2015-01-23 11:02:09,16172782000,155913.0,42.333793,-71.105138
359,Brighams & Womens Hospital - Tower Cafe,75 Francis,Boston,MA,02115,Active,FS,Eating & Drinking,2006-12-07 13:34:01,16177235269,158148.0,42.336106,-71.10748
360,Bright Arena/Briggs Cage,79 NORTH HARVARD,ALLSTON,MA,02134,Active,FS,Eating & Drinking,2006-12-07 13:34:08,10004992700,,0.0,0.0
361,Bright-Landry Arena Briggs Cafe,65 Harvard,Allston,MA,02163,Active,FT,Eating & Drinking w/ Take Out,2014-10-22 12:12:08,10000000000,168215.0,42.367592,-71.125878
362,Brighton Bodega,328 Washington,Brighton,MA,02135,Active,FS,Eating & Drinking,2016-10-04 12:49:38,10000000000,143518.0,42.34887,-71.152162
363,BRIGHTON CAFE,1597 COMMONWEALTH ,BRIGHTON,MA,02135,Active,FT,Eating & Drinking w/ Take Out,2006-12-07 13:35:48,16177874244,,0.0,0.0
364,BRIGHTON HOUSE OF PIZZA,218 Market,Brighton,MA,02135,Active,FT,Eating & Drinking w/ Take Out,2014-09-26 09:16:08,16172540938,167411.0,42.355172,-71.149372
365,Brighton Music Hall,156 Brighton,Allston,MA,02134,Active,FS,Eating & Drinking,2011-01-11 15:38:56,16177780089,155890.0,42.352845,-71.132559
366,British Airways Lounge,500 Terminal,East Boston,MA,02128,Active,FS,Eating & Drinking,2017-01-30 10:05:30,16172267525,341351.0,0.0,0.0
367,Broadside,99 broad,BOSTON,MA,02109,Active,FS,Eating & Drinking,2016-05-13 08:31:15,16173578287,,0.0,0.0
368,Broadway Pastry,258 Broadway,South Boston,MA,02127,Active,FT,Eating & Drinking w/ Take Out,2015-07-31 13:14:25,16172682253,21413.0,42.33942,-71.05141
369,BROADWAY'S BEST PIZZA,483 Broadway,South Boston,MA,02127,Active,FT,Eating & Drinking w/ Take Out,2019-08-19 15:09:07,16172681228,156388.0,42.335274,-71.04559
370,Broken Coconut,43 Northern,Boston,MA,02210,Active,FS,Eating & Drinking,2021-04-13 11:00:41,10000000000,437352.0,0.0,0.0
371,Broken Records Beer Hall,67 Guest,Brighton,MA,02135,Active,FS,Eating & Drinking,2021-09-20 10:08:37,10000000000,437714.0,0.0,0.0
372,Brother Deli Restaurant,1636 Blue Hill,Mattapan,MA,02126,Active,FS,Eating & Drinking,2006-12-07 13:33:52,16172985224,16341.0,42.268244,-71.093378
373,BROWN SUGAR CAFE,1033 Commonwealth,Boston,MA,02215,Active,FS,Eating & Drinking,2021-08-17 14:41:56,16177874242,157617.0,42.352262,-71.121849
374,BROWNSTONE,111 DARTMOUTH,BOSTON,MA,02116,Active,FS,Eating & Drinking,2007-03-12 13:10:04,16174517400,,0.0,0.0
375,Bruegger's,667 VFW,West Roxbury,MA,02132,Active,FT,Eating & Drinking w/ Take Out,2008-02-14 10:39:23,16173273465,,0.0,0.0
376,BRUEGGER'S BAGEL BAKERY,375 LONGWOOD ,BOSTON,MA,02115,Active,FS,Eating & Drinking,2006-12-07 13:34:39,16173273465,,0.0,0.0
377,Bruins Bar,1 Harborside,East Boston,MA,02128,Active,FS,Eating & Drinking,2018-06-06 10:30:58,17163679342,155970.0,42.363408,-71.025698
378,BTM Cafe,60 Fenwood,Boston,MA,02115,Active,FS,Eating & Drinking,2016-08-22 14:14:33,16177327493,347439.0,0.0,0.0
379,Bubble Bath,100 High,Boston,MA,02110,Active,FS,Eating & Drinking,2019-11-25 13:27:03,16174256262,342934.0,42.354448,-71.05536
380,Bubor Cha Cha,41 Beach,Boston,MA,02111,Active,FS,Eating & Drinking,2014-06-12 13:13:49,16174823338,9390.0,42.351303,-71.060946
381,BUKHARA INDIAN BISTRO,3698 Washington,Jamaica Plain,MA,02130,Active,FS,Eating & Drinking,2019-06-05 08:53:15,16176333975,144968.0,42.300583,-71.112757
382,Bukowski Tavern,50 Dalton,Boston,MA,02115,Active,FS,Eating & Drinking,2020-08-03 09:08:47,16174379999,45832.0,42.347065,-71.085643
383,Bunker Hill Kinghts of Columbu #62,545 Medford,Charlestown,MA,02129,Active,FS,Eating & Drinking,2020-11-12 14:19:26,16172418697,93789.0,42.38393,-71.07064
384,Burger King,1 Maverick,East Boston,MA,02128,Active,FT,Eating & Drinking w/ Take Out,2010-09-23 13:11:47,16172473763,156456.0,42.37165,-71.042779
385,Burger King,100 Washington,Dorchester,MA,02121,Active,FT,Eating & Drinking w/ Take Out,2006-12-07 13:33:58,16174271535,,0.0,0.0
386,Burger King,1200 Dorchester,Dorchester,MA,02125,Active,FT,Eating & Drinking w/ Take Out,2013-01-28 13:36:18,16172689071,48259.0,42.309531,-71.057693
387,Burger King,128 Tremont,Boston,MA,02108,Active,FT,Eating & Drinking w/ Take Out,2006-12-07 13:35:02,16172473763,136812.0,42.35629,-71.06185
388,Burger King,210 Brighton,Allston,MA,02134,Active,FT,Eating & Drinking w/ Take Out,2013-01-28 13:36:20,16172689071,157852.0,42.353018,-71.134978
389,Burger King,280 Broadway,South Boston,MA,02127,Active,FT,Eating & Drinking w/ Take Out,2013-01-28 13:35:54,16172689071,157466.0,42.339219,-71.050958
390,Burger King,885 CUMMINS ,MATTAPAN,MA,02126,Active,FT,Eating & Drinking w/ Take Out,2006-12-07 13:33:57,16172473763,,0.0,0.0
391,Burger King,892 River,Hyde Park,MA,02136,Active,FS,Eating & Drinking,2018-08-30 09:43:32,14016418014,352207.0,0.0,0.0
392,Burger King,944 Bennington,East Boston,MA,02128,Active,FT,Eating & Drinking w/ Take Out,2006-12-07 13:34:37,10005698755,155885.0,42.386166,-71.00953
393,Burger King # 3483,1610 VFW,West Roxbury,MA,02132,Active,FT,Eating & Drinking w/ Take Out,2013-02-14 14:12:39,16173238739,157719.0,42.265889,-71.167951
394,Burger King # 3531,4594 Washington,Roslindale,MA,02131,Active,FT,Eating & Drinking w/ Take Out,2013-02-14 14:17:32,16173238739,158174.0,42.275977,-71.139161
395,Burro Bar,1357 Washington,Roxbury,MA,02118,Active,FS,Eating & Drinking,2018-02-26 11:44:38,16176250600,157239.0,42.34165,-71.06928
396,Buttermilk & Bourbon,160 Commonwealth,Boston,MA,02116,Active,FS,Eating & Drinking,2006-12-07 13:36:23,16172661122,37896.0,42.35128,-71.07865
397,By Chloe,399 Boylston,Boston,MA,02116,Active,FS,Eating & Drinking,2018-01-26 13:15:45,12123292697,18319.0,42.35179,-71.07209
398,C Fruit Life,171 Brighton,Boston,MA,02134,Active,FS,Eating & Drinking,2016-06-15 10:17:23,16177855477,403770.0,0.0,0.0
399,C01/B01/Y01,4 Jersey,Boston,MA,02215,Active,FT,Eating & Drinking w/ Take Out,2007-04-27 18:55:19,10000000000,156417.0,42.346723,-71.09868
400,C11,4 Jersey,Boston,MA,02215,Active,FT,Eating & Drinking w/ Take Out,2008-11-16 11:06:12,16175366683,424258.0,0.0,0.0
401,C12/B12,4 Jersey,Boston,MA,02215,Active,FT,Eating & Drinking w/ Take Out,2008-11-16 11:08:02,16175366683,424258.0,0.0,0.0
402,C13/B13,4 Jersey,Boston,MA,02215,Active,FT,Eating & Drinking w/ Take Out,2008-11-16 11:09:06,16175366683,424258.0,0.0,0.0
403,C15/B15,4 Jersey,Boston,MA,02215,Active,FT,Eating & Drinking w/ Take Out,2008-11-16 11:13:26,16175366683,424258.0,0.0,0.0
404,C16/B16,4 Jersey,Boston,MA,02215,Active,FT,Eating & Drinking w/ Take Out,2007-04-27 18:56:33,10000000000,424258.0,0.0,0.0
405,C17/B17,4 Jersey,Boston,MA,02215,Active,FT,Eating & Drinking w/ Take Out,2008-11-16 11:14:22,16175366683,424258.0,0.0,0.0
406,CABANA GRILL,254 Bennington,East Boston,MA,02128,Active,FS,Eating & Drinking,2019-10-03 14:51:17,16175610833,352108.0,0.0,0.0
407,Cactus Grill,42 Maverick,East Boston,MA,02128,Active,FT,Eating & Drinking w/ Take Out,2007-08-07 12:52:28,17812670283,92887.0,42.37014,-71.03916
408,Cada Dia Nutrition,7 Burroughs,Jamaica Plain,MA,02130,Active,FT,Eating & Drinking w/ Take Out,2020-10-07 13:35:41,16175953245,398362.0,0.0,0.0
409,Cafe 1924 @ Mass Financial Services,111 Huntington,Boston,MA,02199,Active,FS,Eating & Drinking,2021-05-17 14:35:29,16179545000,76239.0,42.34646,-71.08152
410,Cafe 24,24 Fenway,Boston,MA,02215,Active,FT,Eating & Drinking w/ Take Out,2014-08-18 12:46:19,16177472712,57434.0,42.34589,-71.09007
411,Cafe 26,26 Temple,Boston,MA,02111,Active,FT,Eating & Drinking w/ Take Out,2012-05-17 09:27:31,16175151080,134063.0,42.355396,-71.062051
412,Cafe 472,472 Commonwealth,Boston,MA,02215,Active,FT,Eating & Drinking w/ Take Out,2011-05-03 08:28:35,16172364949,40985.0,42.34855,-71.09367
413,Cafe 939,939 Boylston,Boston,MA,02115,Active,FT,Eating & Drinking w/ Take Out,2007-10-04 12:25:35,16177472712,158135.0,42.348238,-71.08505
414,Cafe Amalfi,2 Battery Wharf,Boston,MA,02109,Active,FS,Eating & Drinking,2018-08-22 14:25:50,16179364760,172851.0,42.367173,-71.050159
415,Cafe Beirut,650 Centre,Jamaica Plain,MA,02130,Active,FT,Eating & Drinking w/ Take Out,2012-03-13 10:28:20,16175227264,28151.0,42.31308,-71.1139
416,Cafe Bonjour,55 Temple,Boston,MA,02111,Active,FT,Eating & Drinking w/ Take Out,2018-08-02 11:29:53,10000000000,134076.0,42.354894,-71.061756
417,Cafe GiGu,102 Meridian,EAST BOSTON,MA,02128,Active,FS,Eating & Drinking,2009-09-29 09:53:36,10000000000,,0.0,0.0
418,Cafe Iterum,25 Lewis,East Boston,MA,02128,Active,FT,Eating & Drinking w/ Take Out,2021-01-28 12:50:17,16179135927,85343.0,42.367555,-71.042205
419,Cafe Juice Up,1290 Blue Hill,Mattapan,MA,02126,Active,FT,Eating & Drinking w/ Take Out,2019-08-13 08:02:51,17812670173,16226.0,42.279598,-71.092686
420,Cafe Landwer,383 Chestnut Hill,Brighton,MA,02467,Active,FS,Eating & Drinking,2017-12-21 11:13:10,16177759634,419371.0,0.0,0.0
421,Cafe Landwer,651 Boylston,Boston,MA,02116,Active,FS,Eating & Drinking,2021-07-13 15:10:31,10000000000,348492.0,0.0,0.0
422,Cafe Landwer,900 Beacon,Boston,MA,02215,Active,FS,Eating & Drinking,2017-06-19 11:33:50,16177759634,12379.0,42.34679,-71.10573
423,Cafe Madeleine,517 Columbus,Roxbury,MA,02118,Active,FT,Eating & Drinking w/ Take Out,2014-01-17 12:21:08,17023544743,35826.0,42.34222,-71.08014
424,Cafe Marliave,10 Bosworth,Boston,MA,02108,Active,FS,Eating & Drinking,2008-03-10 12:37:41,16178720484,155889.0,42.356873,-71.06026
425,CAFE MIRROR,362 Washington,Brighton,MA,02135,Active,FT,Eating & Drinking w/ Take Out,2006-12-07 13:36:00,16177799662,157507.0,42.348959,-71.153598
426,CAFE NAPOLI,81 Chelsea,East Boston,MA,02128,Active,FS,Eating & Drinking,2006-12-07 13:35:13,16175673018,30623.0,42.371833,-71.036223
427,CAFE PODIMA,168 Cambridge,Boston,MA,02114,Active,FT,Eating & Drinking w/ Take Out,2017-09-28 14:15:08,16172274959,352484.0,0.0,0.0
428,CAFE POLONIA,611 Dorchester,South Boston,MA,02127,Active,FS,Eating & Drinking,2006-12-07 13:35:40,16172690110,156768.0,42.328788,-71.057108
429,CAFE PORTO BELLO,672 Broadway,South Boston,MA,02127,Active,FS,Eating & Drinking,2006-12-07 13:34:45,16172697680,21122.0,42.3358,-71.03763
430,Cafe Presto,1 Hotel,East Boston,MA,02128,Active,FT,Eating & Drinking w/ Take Out,2016-11-14 13:16:56,16175686700,,0.0,0.0
431,CAFE QUATTRO,60 Springfield,Roxbury,MA,02118,Active,FT,Eating & Drinking w/ Take Out,2014-10-14 09:52:54,16175579291,129907.0,42.33566,-71.07446
432,Cafe Sauvage,25 Massachusetts,Boston,MA,02115,Active,FT,Eating & Drinking w/ Take Out,2021-09-27 14:31:47,10000000000,158381.0,42.350505,-71.089578
433,Cafe SuSu,240A Newbury,Boston,MA,02116,Active,FS,Eating & Drinking,2017-11-27 10:14:46,13476945321,101454.0,42.34946,-71.08224
434,Cafe Weekend,120 Harvard,Allston,MA,02134,Active,FS,Eating & Drinking,2022-01-28 08:45:36,16178355421,355250.0,0.0,0.0
435,CAFENATION,378 Washington,Brighton,MA,02135,Active,FS,Eating & Drinking,2020-09-14 11:21:06,16177834514,143531.0,42.34898,-71.15424
436,Caffe Bene,333 Massachusetts,Boston,MA,02115,Active,FS,Eating & Drinking,2014-01-28 09:07:51,17188082660,271270.0,42.34224,-71.08468
437,Caffe Dello Sport,308 HANOVER,BOSTON,MA,02113,Active,FS,Eating & Drinking,2006-12-07 13:34:02,16175235063,,0.0,0.0
438,Caffe Lil Italy,178 Salem,Boston,MA,02113,Active,FS,Eating & Drinking,2011-01-21 12:48:37,16172271303,121822.0,42.36652,-71.05478
439,Caffe Nero,10 Summer,Boston,MA,02110,Active,FS,Eating & Drinking,2016-06-30 13:54:34,16172458902,352683.0,0.0,0.0
440,Caffe Nero,100 Huntington,Boston,MA,02116,Active,FS,Eating & Drinking,2019-04-25 16:44:55,16172458902,76237.0,42.34721,-71.0782
441,Caffe Nero,1047 Commonwealth,Boston,MA,02134,Active,FS,Eating & Drinking,2017-02-27 11:04:00,10000000000,36982.0,42.35238,-71.12258
442,Caffe Nero,1375 Boylston,Boston,MA,02215,Active,FS,Eating & Drinking,2017-10-10 13:41:36,16172458902,417509.0,0.0,0.0
443,Caffe Nero,189 Massachusetts,Boston,MA,02115,Active,FS,Eating & Drinking,2018-01-23 13:29:55,16172458902,92019.0,42.34531,-71.08717
444,Caffe Nero,298 Washington,Boston,MA,02135,Active,FS,Eating & Drinking,2017-12-13 12:16:59,16172458902,407457.0,0.0,0.0
445,Caffe Nero,3 Center,Boston,MA,02108,Active,FS,Eating & Drinking,2018-02-08 13:24:02,16172458904,423142.0,0.0,0.0
446,Caffe Nero,354 Longwood,Boston,MA,02215,Active,FT,Eating & Drinking w/ Take Out,2015-01-22 09:53:08,16172458902,343104.0,0.0,0.0
447,Caffe Nero,370 Congress,Boston,MA,02127,Active,FT,Eating & Drinking w/ Take Out,2015-12-16 11:40:24,16176186436,,0.0,0.0
448,Caffe Nero,416 Broadway,South Boston,MA,02127,Active,FS,Eating & Drinking,2017-03-22 14:17:03,16172458959,388583.0,0.0,0.0
449,Caffe Nero,53 Union,Roxbury,MA,02118,Active,FT,Eating & Drinking w/ Take Out,2015-05-20 09:10:52,16172458904,139378.0,42.343564,-71.072012
450,Caffe Nero,558 Washington,Boston,MA,02111,Active,FS,Eating & Drinking,2014-01-13 08:27:52,15085055736,351927.0,0.0,0.0
451,Caffe Nero,57 Northern,Boston,MA,02210,Active,FT,Eating & Drinking w/ Take Out,2017-05-22 10:18:19,16172458902,421314.0,0.0,0.0
452,Caffe Nero,725 Centre,Jamaica Plain,MA,02130,Active,FS,Eating & Drinking,2014-09-29 13:55:14,16172458902,28179.0,42.31117,-71.11475
453,Caffe Nero Americas  Inc.,100 Huntington,Boston,MA,02116,Active,FT,Eating & Drinking w/ Take Out,2019-06-27 15:58:06,16172458902,76237.0,42.34721,-71.0782
454,Caffe Nero- K7,80 Causeway,Boston,MA,02114,Active,FT,Eating & Drinking w/ Take Out,2020-02-13 13:07:33,17744130011,423633.0,0.0,0.0
455,CAFFE PARADISO,253 HANOVER,BOSTON,MA,02113,Active,FS,Eating & Drinking,2006-12-07 13:34:14,16177421768,,0.0,0.0
456,Caffe Strega & Catering,1 Marina Park,Boston,MA,02210,Active,FT,Eating & Drinking w/ Take Out,2021-12-08 14:18:51,16176006336,,0.0,0.0
457,Caffe Vittoria,290 Hanover,Boston,MA,02113,Active,FS,Eating & Drinking,2006-12-07 13:34:02,16175255340,69102.0,42.364098,-71.054401
458,Cajun Cajun,640 Atlantic,Boston,MA,02110,Active,FS,Eating & Drinking,2006-12-07 13:34:44,15083804803,156474.0,42.350021,-71.055941
459,CALIFORNIA PIZZA KITCHEN,800 Boylston,Boston,MA,02199,Active,FS,Eating & Drinking,2006-12-07 13:34:32,13103425000,194357.0,42.34716,-71.08251
460,Camden Food Co,300 Terminal,East Boston,MA,02128,Active,FT,Eating & Drinking w/ Take Out,2015-09-03 13:34:29,17037237264,,0.0,0.0
461,Canary Square,435 Huntington,Jamaica Plain,MA,02130,Active,FS,Eating & Drinking,2010-08-03 09:58:33,16173088607,76817.0,42.31979,-71.112
462,Cannonball Cafe,383 Dorchester,South Boston,MA,02127,Active,FS,Eating & Drinking,2021-06-29 12:35:38,19788772212,343874.0,42.335073,-71.057204
463,Canopy Hotel,99 Blackstone,Boston,MA,02109,Active,FS,Eating & Drinking,2019-11-12 08:30:53,10000000000,423958.0,0.0,0.0
464,CANTINA ITALIANA,346 Hanover,Boston,MA,02113,Active,FS,Eating & Drinking,2019-03-25 15:01:40,16177234577,352169.0,0.0,0.0
465,CANTON EATERY,339 Meridian,East Boston,MA,02128,Active,FT,Eating & Drinking w/ Take Out,2013-11-08 11:02:40,16176933400,351594.0,0.0,0.0
466,CANTON HOUSE,6 Hancock,Dorchester,MA,02125,Active,FT,Eating & Drinking w/ Take Out,2020-02-25 15:46:31,16172883825,158300.0,42.315595,-71.065919
467,Cape Verde Taste,481 Geneva,Dorchester,MA,02122,Active,FT,Eating & Drinking w/ Take Out,2021-03-26 08:06:56,18572474384,156569.0,42.299318,-71.064788
468,Capital Burger #3202,159 Newbury,Boston,MA,02116,Active,FS,Eating & Drinking,2020-01-21 12:20:10,10000000000,155098.0,42.35087,-71.07863
469,CAPITAL GRILLE,880 Boylston,Boston,MA,02199,Active,FS,Eating & Drinking,2010-12-21 08:45:22,10000000000,18415.0,42.34753,-71.08411
470,Capital One Cafe,55 Seaport,Boston,MA,02210,Active,FS,Eating & Drinking,2016-08-02 11:21:38,12152383000,353187.0,0.0,0.0
471,CAPITOL COFFEE HOUSE,122 Bowdoin,Boston,MA,02108,Active,FS,Eating & Drinking,2006-12-07 13:34:12,16172274865,158010.0,42.358885,-71.062751
472,CAPO RESTAURANT,443 Broadway,South Boston,MA,02127,Active,FS,Eating & Drinking,2015-07-07 12:24:31,16178494993,157259.0,42.336076,-71.047019
473,CAPPY'S PIZZA,304 Centre,Jamaica Plain,MA,02130,Active,FT,Eating & Drinking w/ Take Out,2020-11-18 09:32:44,16175220279,27964.0,42.32271,-71.10341
474,CAPPY'S PIZZA,672 TRUMAN ,HYDE PARK,MA,02136,Active,FT,Eating & Drinking w/ Take Out,2006-12-07 13:35:35,16173640111,,0.0,0.0
475,CAPPY'S PIZZA & SUBS,82 Westland,Boston,MA,02115,Active,FT,Eating & Drinking w/ Take Out,2006-12-07 13:35:59,16176305751,156244.0,42.343727,-71.089581
476,CAPTAIN NEMO'S,367 Centre,Jamaica Plain,MA,02130,Active,FT,Eating & Drinking w/ Take Out,2006-12-07 13:35:04,16179710100,156016.0,42.322472,-71.108578
477,Caramelo Bakery Cafe,375 Blue Hill,Dorchester,MA,02121,Active,FT,Eating & Drinking w/ Take Out,2018-05-14 11:58:27,16174274020,16436.0,42.31178,-71.08106
478,Caribbean Flavors,1210 Blue Hill,Mattapan,MA,02126,Active,FT,Eating & Drinking w/ Take Out,2019-11-01 13:32:39,16175067875,157320.0,42.282979,-71.091349
479,Caribe Restaurant,559 Washington,Dorchester,MA,02124,Active,FT,Eating & Drinking w/ Take Out,2006-12-07 13:36:21,16174367351,146110.0,42.292205,-71.071965
480,CARLOS CUCINA ITALIANA,131 Brighton,Allston,MA,02134,Active,FS,Eating & Drinking,2019-05-13 15:51:30,16179086581,155924.0,42.353088,-71.131159
481,Carmelina's North End,307 Hanover,Boston,MA,02113,Active,FS,Eating & Drinking,2008-03-27 09:26:17,16178944462,69105.0,42.36388,-71.05416
482,CARNEY HOSPITAL,2100 Dorchester,Dorchester,MA,02124,Active,FS,Eating & Drinking,2010-11-24 10:47:12,16172964000,48511.0,42.278028,-71.066046
483,CAROL ANN BAKE SHOP,200 Faneuil Hall Market,Boston,MA,02109,Active,FT,Eating & Drinking w/ Take Out,2007-03-26 14:28:39,10000000000,,0.0,0.0
484,Carrie Nation,11 Beacon,Boston,MA,02108,Active,FS,Eating & Drinking,2012-12-10 14:29:00,10000000000,183546.0,42.35838,-71.06178
485,Carrot Flower,703 Centre,Boston,MA,02130,Active,FS,Eating & Drinking,2018-01-26 10:02:07,16172851334,397124.0,0.0,0.0
486,CARTER FULLER MENTAL HOSPITAL,85 Newton,Roxbury,MA,02118,Active,FS,Eating & Drinking,2015-07-06 09:33:18,16176268831,157229.0,42.336387,-71.070969
487,CARVER DEN,80 TALBOT ,DORCHESTER,MA,02124,Active,FS,Eating & Drinking,2006-12-07 13:36:10,16175923845,,0.0,0.0
488,Casa Bonita Mexican Grill,1033 Massachusetts,Roxbury,MA,02118,Active,FT,Eating & Drinking w/ Take Out,2021-06-30 14:21:51,10000000000,91941.0,42.32709,-71.06764
489,Casa Cana,1234 Soldiers Field,Brighton,MA,02134,Active,FS,Eating & Drinking,2018-03-30 12:21:31,16172622605,128292.0,42.3637,-71.13638
490,Casa Razdora,115 Water,Boston,MA,02109,Active,FT,Eating & Drinking w/ Take Out,2010-12-10 15:08:10,16173386700,146292.0,42.35805,-71.05461
491,Casa Real Mexican Food,856 Dorchester,DORCHESTER,MA,02125,Active,FT,Eating & Drinking w/ Take Out,2008-03-31 14:43:30,16172823135,,0.0,0.0
492,CASA ROMERO,30 Gloucester,Boston,MA,02115,Active,FS,Eating & Drinking,2007-03-20 08:44:38,10005364341,64941.0,42.349444,-71.084498
493,Casa Verde,711 Centre,Jamaica Plain,MA,02130,Active,FS,Eating & Drinking,2015-09-17 15:26:44,10000000000,156387.0,42.311378,-71.114669
494,Casabe Kitchen,633 Centre,Jamaica Plain,MA,02130,Active,FS,Eating & Drinking,2019-05-09 15:50:19,17819033557,344812.0,42.313746,-71.114645
495,Casarecce Cucina Italiana,285 Hanover,Boston,MA,02113,Active,FS,Eating & Drinking,2017-12-08 10:08:26,16172277300,360641.0,0.0,0.0
496,Cask N Flagon,48 BROOKLINE ,BOSTON,MA,02215,Active,FS,Eating & Drinking,2006-12-07 13:33:54,16175364840,,0.0,0.0
497,Castle Island Brewing Co.,10 Old Colony,South Boston,MA,02127,Active,FS,Eating & Drinking,2020-10-07 13:17:47,10000000000,345314.0,42.3373,-71.056344
498,Catering,4 Jersey,Boston,MA,02215,Active,FS,Eating & Drinking,2006-12-07 13:35:33,16175366683,156417.0,42.346723,-71.09868
499,Cathedral Station,1222 Washington,Roxbury,MA,02118,Active,FS,Eating & Drinking,2014-10-20 13:37:45,16173386060,144000.0,42.342794,-71.066726
500,Cava,1350 Boylston,Boston,MA,02215,Active,FS,Eating & Drinking,2017-08-03 14:36:59,12024002920,18095.0,42.34381,-71.09952
501,Cava,669 Boylston,Boston,MA,02116,Active,FS,Eating & Drinking,2018-01-12 10:17:56,15133946161,367479.0,0.0,0.0
502,CAVAN CAFE,1406 Hyde Park,Hyde Park,MA,02136,Active,FS,Eating & Drinking,2006-12-07 13:35:31,16173613390,156733.0,42.250633,-71.125728
503,Center Stage @ Emerson,116 Boylston,Boston,MA,02116,Active,FS,Eating & Drinking,2019-07-22 11:29:07,18575239816,157533.0,42.352228,-71.065638
504,CENTERFOLDS,12 Lagrange,Boston,MA,02116,Active,FS,Eating & Drinking,2006-12-07 13:35:24,16172922600,367816.0,0.0,0.0
505,Centerplate @ ORPHEUM THEATRE,1 Hamilton,Boston,MA,02108,Active,FT,Eating & Drinking w/ Take Out,2006-12-07 13:35:21,18642482011,165924.0,42.356225,-71.060994
506,Central Wharf Co.,160 Milk,Boston,MA,02109,Active,FS,Eating & Drinking,2006-12-07 13:34:31,16173531996,95433.0,42.358689,-71.052756
507,CGK Newbury,266 Newbury,Boston,MA,02116,Active,FS,Eating & Drinking,2019-12-17 14:00:11,16177851151,101479.0,42.34918,-71.08319
508,Cha Feo,248 Newbury,Boston,MA,02116,Active,FT,Eating & Drinking w/ Take Out,2020-08-11 11:09:57,16179537734,367202.0,0.0,0.0
509,Cha Kung Fong,1 Nassau,Boston,MA,02111,Active,FS,Eating & Drinking,2019-09-04 13:27:46,19172385096,100246.0,42.348583,-71.062975
510,Chacarero,93 Arch,Boston,MA,02110,Active,FT,Eating & Drinking w/ Take Out,2007-09-21 11:10:13,16175420392,161605.0,42.355042,-71.059128
511,CHACHO'S PIZZA,1502 Tremont,Mission Hill,MA,02120,Active,FT,Eating & Drinking w/ Take Out,2006-12-07 13:35:31,16174274167,158255.0,42.332099,-71.099309
512,Charlestown Recovery House,15 Bunker Hill,Charlestown,MA,02129,Active,FS,Eating & Drinking,2017-08-09 07:53:04,16172420088,340910.0,42.379569,-71.063977
513,Charlestown Tea & Treats,65 Main,Charlestown,MA,02129,Active,FT,Eating & Drinking w/ Take Out,2018-04-04 10:19:45,12625273250,88664.0,42.373635,-71.062369
514,Charley's Philly Steak,417 Washington,Boston,MA,02108,Active,FT,Eating & Drinking w/ Take Out,2013-09-04 13:51:15,17816098753,331487.0,42.35582,-71.0604
515,Charley's Philly Steaks,350 Longwood,Boston,MA,02115,Active,FT,Eating & Drinking w/ Take Out,2015-05-06 13:50:45,16175665204,156578.0,42.339072,-71.108098
516,CHARLIE'S HOUSE OF PIZZA,1740 Dorchester,Dorchester,MA,02124,Active,FS,Eating & Drinking,2019-09-05 14:55:57,16719032203,48399.0,42.2907,-71.06272
517,Charlie's Pizza & Cafe,177 Allston,Allston,MA,02134,Active,FT,Eating & Drinking w/ Take Out,2006-12-07 13:35:23,16172773737,158105.0,42.347732,-71.138289
518,Charlies Sandwich Shoppe,429 Columbus,Boston,MA,02116,Active,FS,Eating & Drinking,2017-07-20 11:10:48,16175367669,211952.0,42.34413,-71.07777
519,CHART HOUSE,60 Long,Boston,MA,02110,Active,FS,Eating & Drinking,2006-12-07 13:35:41,19789229266,87098.0,42.360178,-71.049411
520,CHARTWELLS @ SNELL LIBRARY,376 Huntington,Boston,MA,02115,Active,FS,Eating & Drinking,2006-12-07 13:35:27,16173733130,157631.0,42.338435,-71.087998
521,Chartwells Churchill Cafe,380 Huntington,Boston,MA,02115,Active,FT,Eating & Drinking w/ Take Out,2020-09-09 14:44:20,10000000000,166412.0,42.33879,-71.088872
522,Chatime,331 Huntington,Boston,MA,02115,Active,FS,Eating & Drinking,2014-05-21 14:41:56,16177174928,166410.0,42.340892,-71.088382
523,Chattermark Distillers,200 Terminal,Charlestown,MA,02129,Active,FS,Eating & Drinking,2022-03-18 12:38:48,16173561866,134473.0,42.38317,-71.05003
524,CHAU CHOW,699 WM T MORRISSEY ,DORCHESTER,MA,02122,Active,FS,Eating & Drinking,2006-12-07 13:36:40,10000000000,,0.0,0.0
525,CHECKMATE CAFE,900 South,Roslindale,MA,02131,Active,FT,Eating & Drinking w/ Take Out,2015-12-29 09:44:26,16173275730,419718.0,0.0,0.0
526,CHEQUERS,72 Concord,Roxbury,MA,02118,Active,FS,Eating & Drinking,2006-12-07 13:34:59,16173580241,343246.0,42.336202,-71.072487
527,Chequers Coffee Express,72 Concord,Roxbury,MA,02118,Active,FT,Eating & Drinking w/ Take Out,2011-06-29 11:44:40,16172832727,343246.0,42.336202,-71.072487
528,Chestnut Park @Cleveland Circle,50 Sutherland,Brighton,MA,02135,Active,FS,Eating & Drinking,2020-03-04 09:35:33,10000000000,133016.0,42.33799,-71.14993
529,CHEZ-VOUS SKATING RINK,11 Rhoades,Dorchester,MA,02124,Active,FS,Eating & Drinking,2006-12-07 13:34:40,16178256877,115584.0,42.28536,-71.09219
530,Chickadee,21 Dry Dock,Boston,MA,02210,Active,FS,Eating & Drinking,2017-11-02 10:02:14,10000000000,164542.0,42.344254,-71.030938
531,Chicken and Rice Guys,280 Washington,Boston,MA,02108,Active,FT,Eating & Drinking w/ Take Out,2016-06-23 11:23:45,19785022104,352451.0,0.0,0.0
532,Chicken and Rice Guys,85 Bedford,Boston,MA,02111,Active,FT,Eating & Drinking w/ Take Out,2015-02-24 11:41:11,16174260785,156236.0,42.353107,-71.05868
533,Chick-Fil-A,569 Boylston,Boston,MA,02116,Active,FS,Eating & Drinking,2019-06-17 14:31:07,10000000000,18351.0,42.35064,-71.07645
534,Chilacates,1482 Tremont,Mission Hill,MA,02120,Active,FS,Eating & Drinking,2018-04-04 10:13:38,16179716266,421181.0,0.0,0.0
535,Chilacates,222 Amory,Jamaica Plain,MA,02130,Active,FT,Eating & Drinking w/ Take Out,2015-07-02 10:08:43,16179095341,3286.0,42.316388,-71.103161
536,Chilacates,275A Shawmut,Roxbury,MA,02118,Active,FT,Eating & Drinking w/ Take Out,2018-12-04 07:50:00,10000000000,351716.0,0.0,0.0
537,Chilacates,4257 Washington,Boston,MA,02131,Active,FT,Eating & Drinking w/ Take Out,2020-07-15 14:53:40,16179095341,400037.0,0.0,0.0
538,Chilacates,658 Centre,Jamaica Plain,MA,02130,Active,FS,Eating & Drinking,2017-02-16 15:42:07,16179095341,155854.0,42.312748,-71.113869
539,CHILDRENS HOSPITAL MAIN CAF,300 LONGWOOD ,BOSTON,MA,02115,Active,FS,Eating & Drinking,2006-12-07 13:34:10,17812161814,,0.0,0.0
540,Chili Bento,1 Brighton,Allston,MA,02134,Active,FT,Eating & Drinking w/ Take Out,2019-10-16 15:22:46,16179270210,157732.0,42.352411,-71.125329
541,Chill On Park,142 Park,Dorchester,MA,02122,Active,FT,Eating & Drinking w/ Take Out,2014-12-18 10:27:17,16178253900,355692.0,0.0,0.0
542,Chilton Club,150 Commonwealth,Boston,MA,02116,Active,FS,Eating & Drinking,2006-12-07 13:33:56,16172664860,156420.0,42.351524,-71.077811
543,CHINA GOURMET RESTAURANT,23 Tyler,Boston,MA,02111,Active,FS,Eating & Drinking,2006-12-07 13:35:35,16174829888,138816.0,42.350769,-71.060935
544,CHINA HOUSE,331 Hanover,Boston,MA,02113,Active,FT,Eating & Drinking w/ Take Out,2006-12-07 13:35:07,16177239888,69110.0,42.3642,-71.05382
545,CHINA MAXIM III,241 Market,Brighton,MA,02134,Active,FT,Eating & Drinking w/ Take Out,2006-12-07 13:34:48,16175953222,157107.0,42.35463,-71.150488
546,China Pearl Restaurant,9 Tyler,Boston,MA,02111,Active,FS,Eating & Drinking,2006-12-07 13:34:00,16174264338,158001.0,42.351085,-71.060788
547,China Sea,1194 Blue Hill,Mattapan,MA,02126,Active,FT,Eating & Drinking w/ Take Out,2020-10-14 13:18:22,16172982421,16185.0,42.28358,-71.09136
548,China Sky Restaurant,782 Adams,Dorchester,MA,02124,Active,FT,Eating & Drinking w/ Take Out,2006-12-07 13:33:50,16172824790,157063.0,42.283093,-71.055609
549,China Station Restaurant,530 Washington,Dorchester,MA,02124,Active,FT,Eating & Drinking w/ Take Out,2012-03-28 10:02:56,16172658688,146103.0,42.29298,-71.07162
550,Chinatown Cafe,262 Harrison,Boston,MA,02111,Active,FS,Eating & Drinking,2010-04-22 08:09:09,16176959888,155728.0,42.347469,-71.06253
551,CHINATOWN EXPRESS,79 River,Mattapan,MA,02126,Active,FT,Eating & Drinking w/ Take Out,2019-08-15 08:45:59,16173981850,155736.0,42.271418,-71.073999
552,CHINESE DRAGON,380 Chelsea,East Boston,MA,02128,Active,FT,Eating & Drinking w/ Take Out,2006-12-07 13:35:52,16175614009,30536.0,42.379336,-71.02807
553,Chipotle Mexican Grill,144 Brookline,Boston,MA,02115,Active,FS,Eating & Drinking,2008-06-04 15:22:58,13032225994,,0.0,0.0
554,Chipotle Mexican Grill,1924 Beacon,Brighton,MA,02135,Active,FS,Eating & Drinking,2007-07-10 11:27:56,13032225994,10015.0,42.336455,-71.149569
555,Chipotle Mexican Grill,21 District,Dorchester,MA,02125,Active,FS,Eating & Drinking,2017-06-30 11:28:50,13032225994,420661.0,0.0,0.0
556,Chipotle Mexican Grill,553 Boylston,Boston,MA,02116,Active,FS,Eating & Drinking,2014-06-12 08:50:38,13032225994,351726.0,0.0,0.0
557,Chipotle Mexican Grill,8 Park,Boston,MA,02116,Active,FS,Eating & Drinking,2016-01-05 12:28:26,10000000000,155883.0,42.351362,-71.06874
558,Chipotle Mexican Grill,99 Seaport,Boston,MA,02210,Active,FS,Eating & Drinking,2016-04-29 10:59:38,13032225994,350792.0,0.0,0.0
559,Chipotle Mexican Grill #1520,101 Summer,Boston,MA,02110,Active,FS,Eating & Drinking,2010-06-10 11:18:53,10000000000,131979.0,42.35362,-71.05824
560,Chipotle Mexican Grille,283 Washington,Boston,MA,02108,Active,FS,Eating & Drinking,2011-05-17 09:01:56,10000000000,144562.0,42.357563,-71.058423
561,Choat Hall & Stewart,150 Oliver,Boston,MA,02110,Active,FS,Eating & Drinking,2011-07-05 09:41:33,16172484859,156011.0,42.355634,-71.05221
562,Chopped & Topped 3rd Fl.,800 Washington,Boston,MA,02111,Active,FT,Eating & Drinking w/ Take Out,2009-09-21 10:21:29,16176364314,145764.0,42.349591,-71.063586
563,Christos Pizzeria,1761 Centre,West Roxbury,MA,02132,Active,FT,Eating & Drinking w/ Take Out,2020-09-25 12:30:38,16173279047,157434.0,42.28751,-71.150689
564,CHULO,350 Longwood,Boston,MA,02115,Active,FT,Eating & Drinking w/ Take Out,2022-02-28 15:48:01,10000000000,156578.0,42.339072,-71.108098
565,CHUNG WAH,199 Bowdoin,Dorchester,MA,02122,Active,FT,Eating & Drinking w/ Take Out,2006-12-07 13:35:31,16173359401,17675.0,42.30509,-71.06819
566,CIAO,2 SEAPORT,BOSTON,MA,02210,Active,FS,Eating & Drinking,2006-12-07 13:35:23,16172619197,,0.0,0.0
567,Ciao Roma,5 North,Boston,MA,02113,Active,FS,Eating & Drinking,2017-04-19 09:56:11,16178234478,361068.0,0.0,0.0
568,Cibo Boston,69 L,South Boston,MA,02127,Active,FT,Eating & Drinking w/ Take Out,2021-03-26 08:27:37,16178034712,156561.0,42.335233,-71.035219
569,Cinis,252 Friend,Boston,MA,02114,Active,FT,Eating & Drinking w/ Take Out,2019-10-08 15:44:02,16177569380,60994.0,42.364494,-71.061192
570,Citizen Public House & Oyster Bar,1310 Boylston,Boston,MA,02215,Active,FS,Eating & Drinking,2010-07-16 11:03:21,16174509000,162466.0,42.344213,-71.097954
571,CitizenM Hotel,50 Causeway,Boston,MA,02114,Active,FS,Eating & Drinking,2019-05-22 14:35:03,10000000000,340676.0,42.365678,-71.061705
572,Citra A Fresh Cafe,221 Longwood,Boston,MA,02115,Active,FT,Eating & Drinking w/ Take Out,2012-07-10 09:38:48,16172835353,87166.0,42.33724,-71.10217
573,Citrus & Salt,142 Berkeley,Boston,MA,02116,Active,FS,Eating & Drinking,2013-08-07 11:59:36,10000000000,157823.0,42.348822,-71.072098
574,City Bar/M. J. O'Connor's,425 Summer,Boston,MA,02210,Active,FS,Eating & Drinking,2008-06-26 13:04:07,16177894111,,0.0,0.0
575,City Tap House,374 Congress,Boston,MA,02210,Active,FS,Eating & Drinking,2016-01-25 10:47:58,14843518711,42114.0,42.34993,-71.04741
576,City Winery,1 Canal,Boston,MA,02114,Active,FS,Eating & Drinking,2016-11-30 11:25:43,19176570062,342962.0,0.0,0.0
577,Cityside,1958 BEACON,BRIGHTON,MA,02135,Active,FS,Eating & Drinking,2009-01-08 11:08:19,16175661002,,0.0,0.0
578,CLARKE'S,21 Merchants,Boston,MA,02109,Active,FS,Eating & Drinking,2006-12-07 13:34:08,10002277800,156457.0,42.359461,-71.05548
579,Classic Harbor Lines,60 Rowes,Boston,MA,02110,Active,FS,Eating & Drinking,2017-09-20 11:58:46,16179512460,156112.0,42.356532,-71.050251
580,Clay Pot Cafe,74 Kneeland,Boston,MA,02111,Active,FS,Eating & Drinking,2013-06-20 13:15:12,18578917283,82319.0,42.350475,-71.060383
581,CLERY'S,331 Columbus,Boston,MA,02116,Active,FS,Eating & Drinking,2006-12-07 13:34:56,16172629874,157607.0,42.346117,-71.075191
582,Clock Tavern,342 BROADWAY,SOUTH BOSTON,MA,02127,Active,FS,Eating & Drinking,2006-12-07 13:33:54,16176994449,,0.0,0.0
583,Clover,160 Federal,Boston,MA,02110,Active,FS,Eating & Drinking,2015-11-13 14:02:54,18585316392,57187.0,42.354049,-71.055925
584,Clover,27 School,Boston,MA,02108,Active,FS,Eating & Drinking,2015-10-13 13:52:34,18585316392,156054.0,42.357719,-71.05907
585,Clover,360 Longwood,Boston,MA,02215,Active,FS,Eating & Drinking,2015-12-18 12:38:49,18585316392,419331.0,0.0,0.0
586,Clover,800 Boylston,Boston,MA,02199,Active,FS,Eating & Drinking,2019-09-17 15:53:56,17732030741,157244.0,42.347296,-71.081457
587,Clover Food Lab,565 Boylston,Boston,MA,02116,Active,FT,Eating & Drinking w/ Take Out,2019-08-02 13:46:25,10000000000,18349.0,42.350654,-71.076368
588,Club Cafe,209 Columbus,Boston,MA,02116,Active,FS,Eating & Drinking,2006-12-07 13:33:56,16175360966,156406.0,42.348549,-71.07237
589,CLUB HOTEL BAR,240 Mount Vernon,Dorchester,MA,02125,Active,FS,Eating & Drinking,2006-12-07 13:35:07,16178223600,98929.0,42.319024,-71.045007
590,CO3/BO3/YO3,4 Jersey,Boston,MA,02215,Active,FT,Eating & Drinking w/ Take Out,2008-11-16 10:36:59,16175366683,424258.0,0.0,0.0
591,CO5/BO5,4 Jersey,Boston,MA,02215,Active,FT,Eating & Drinking w/ Take Out,2008-11-16 10:38:57,16175366683,424258.0,0.0,0.0
592,CO6/BO6,4 Jersey,Boston,MA,02215,Active,FT,Eating & Drinking w/ Take Out,2008-11-16 10:42:45,16175366683,424258.0,0.0,0.0
593,CO7,4 Jersey,Boston,MA,02215,Active,FT,Eating & Drinking w/ Take Out,2008-11-16 10:44:27,16175366683,424258.0,0.0,0.0
594,Cobblestones,30 Charles,Boston,MA,02114,Active,FT,Eating & Drinking w/ Take Out,2021-09-07 10:17:48,16172025377,352500.0,0.0,0.0
595,Coco Leaf,1480 Dorchester,Dorchester,MA,02122,Active,FS,Eating & Drinking,2016-07-06 12:34:54,17812545218,48331.0,42.30008,-71.05995
596,Coco Leaf,303 Newbury,Boston,MA,02115,Active,FS,Eating & Drinking,2019-05-15 12:20:11,18579193779,101539.0,42.34898,-71.08552
597,Cocobeet,100 City Hall,Boston,MA,02108,Active,FT,Eating & Drinking w/ Take Out,2020-02-04 11:45:37,18572638598,158266.0,42.359529,-71.05875
598,Code 10 Restaurant Cafe,2 Concord,Roxbury,MA,02118,Active,FS,Eating & Drinking,2014-01-13 08:15:39,16173756333,41759.0,42.33791,-71.07465
599,Coffee Break Cafe,680 Truman,Hyde Park,MA,02136,Active,FT,Eating & Drinking w/ Take Out,2018-11-06 12:36:43,16179109175,351891.0,0.0,0.0
600,Coffee Cup (Ashmont Station southbound side),1906 Dorchester,Dorchester,MA,02124,Active,FT,Eating & Drinking w/ Take Out,2013-03-15 09:05:56,18572370105,351620.0,0.0,0.0
601,COFFEE SHOP,11 Elkins,South Boston,MA,02127,Active,FT,Eating & Drinking w/ Take Out,2006-12-07 13:34:00,16172686862,157369.0,42.339353,-71.036129
602,Coffee Turco,483 Cambridge,Allston,MA,02134,Active,FT,Eating & Drinking w/ Take Out,2021-09-27 11:11:07,16177942335,448649.0,0.0,0.0
603,Cold Stone Creamery,800 Boylston,Boston,MA,02199,Active,FT,Eating & Drinking w/ Take Out,2015-03-13 12:52:45,17737063566,157244.0,42.347296,-71.081457
604,College Club,44 Commonwealth,Boston,MA,02116,Active,FS,Eating & Drinking,2006-12-07 13:33:56,16175369510,40827.0,42.35273,-71.07335
605,COLLEGE PIZZA,50 Queensberry,Boston,MA,02215,Active,FT,Eating & Drinking w/ Take Out,2021-12-13 12:12:15,10000000000,156080.0,42.342574,-71.097279
606,Colonnade Hotel,120 Huntington,Boston,MA,02116,Active,FS,Eating & Drinking,2006-12-07 13:34:03,10004247000,76242.0,42.34551,-71.08107
607,Columbia Park Cafe @ Santander Bank,2 William T Morrissey,Dorchester,MA,02125,Active,FS,Eating & Drinking,2012-07-26 08:54:40,16175331695,149910.0,42.31943,-71.04927
608,Comedy Connection @ The Wilbur Theater,244 Tremont,Boston,MA,02116,Active,FS,Eating & Drinking,2008-07-17 15:28:48,16172489700,137463.0,42.3507,-71.06467
609,Comella's,1882 Centre,West Roxbury,MA,02132,Active,FT,Eating & Drinking w/ Take Out,2007-01-31 14:56:48,16173278600,27748.0,42.28567,-71.15548
610,COMFORT INN BOSTON,900 WM T MORRISSEY ,DORCHESTER,MA,02122,Active,FS,Eating & Drinking,2006-12-07 13:36:11,16172879200,,0.0,0.0
611,Committee,50 Northern,Boston,MA,02210,Active,FS,Eating & Drinking,2014-10-06 10:21:07,16177924407,352772.0,0.0,0.0
612,Common Ground Cafe @ Simmons College,300 Fenway,Boston,MA,02115,Active,FT,Eating & Drinking w/ Take Out,2010-09-10 11:07:23,16175211073,57444.0,42.33931,-71.09996
613,Community Servings Employee Cafeteria,18 Marbury,Jamaica Plain,MA,02130,Active,FS,Eating & Drinking,2018-06-28 10:27:57,16175227777,89503.0,42.317784,-71.102918
614,Community Workshop Inc.,174 Portland,Boston,MA,02114,Active,FS,Eating & Drinking,2006-12-07 13:34:07,10000000000,155739.0,42.364123,-71.061819
615,Concepts,18 Newbury,Boston,MA,02116,Active,FT,Eating & Drinking w/ Take Out,2021-11-12 11:33:00,17702899125,101385.0,42.352147,-71.072168
616,Concession Kitchen South Side,2597 Beacon,Brighton,MA,02135,Active,FT,Eating & Drinking w/ Take Out,2010-09-15 09:37:30,16175523307,172185.0,42.336249,-71.166434
617,CONF. CTR. SCHOOL OF MGMENT,595 COMMONWEALTH ,BOSTON,MA,02215,Active,FT,Eating & Drinking w/ Take Out,2006-12-07 13:34:50,16173532947,,0.0,0.0
618,Conte 1,2597 Beacon,Brighton,MA,02135,Active,FT,Eating & Drinking w/ Take Out,2010-06-03 09:12:31,16175523307,172185.0,42.336249,-71.166434
619,Conte 2,2597 Beacon,Brighton,MA,02135,Active,FT,Eating & Drinking w/ Take Out,2010-06-03 09:30:29,16175523307,172185.0,42.336249,-71.166434
620,Conte 3,2597 Beacon,Brighton,MA,02135,Active,FT,Eating & Drinking w/ Take Out,2010-06-03 09:36:45,16175523307,172185.0,42.336249,-71.166434
621,Conte 4,2597 Beacon,Brighton,MA,02135,Active,FT,Eating & Drinking w/ Take Out,2010-06-03 09:38:28,16175523307,172185.0,42.336249,-71.166434
622,Conte 5,2597 Beacon,Brighton,MA,02135,Active,FT,Eating & Drinking w/ Take Out,2010-06-03 09:40:41,16175523307,172185.0,42.336249,-71.166434
623,Conte 6,2597 Beacon,Brighton,MA,02135,Active,FT,Eating & Drinking w/ Take Out,2010-06-03 09:42:12,16175523307,172185.0,42.336249,-71.166434
624,Conte 7,2597 Beacon,Brighton,MA,02135,Active,FT,Eating & Drinking w/ Take Out,2010-06-03 09:43:47,16175523307,172185.0,42.336249,-71.166434
625,Conte 8,2597 Beacon,Brighton,MA,02135,Active,FT,Eating & Drinking w/ Take Out,2010-06-03 09:45:22,16175523307,172185.0,42.336249,-71.166434
626,Contessa,15 Arlington,Boston,MA,02116,Active,FS,Eating & Drinking,2022-04-13 09:38:23,10000000000,4827.0,42.35283,-71.0716
627,Convene @ 1 Boston Place,201 Washington,Boston,MA,02108,Active,FS,Eating & Drinking,2016-10-13 10:29:27,19176752663,172688.0,0.0,0.0
628,COOGAN'S BLUFF,171 Milk,Boston,MA,02109,Active,FS,Eating & Drinking,2006-12-07 13:34:56,10004517400,95436.0,42.35827,-71.0533
629,Coppa,253 SHAWMUT,BOSTON,MA,02118,Active,FS,Eating & Drinking,2009-12-09 12:52:46,16173910902,,0.0,0.0
630,Coquette,440 Summer,Boston,MA,02210,Active,FS,Eating & Drinking,2020-11-13 11:19:38,19783175796,424270.0,0.0,0.0
631,Coreanos,172 Brighton,Allston,MA,02134,Active,FS,Eating & Drinking,2016-05-20 15:06:23,16177896079,351875.0,0.0,0.0
632,Corner Cafe,87 Prince,Boston,MA,02113,Active,FS,Eating & Drinking,2006-12-07 13:34:07,16175238997,155740.0,42.36561,-71.05597
633,Cornerstone Pizza Cafe,5 BOWDOIN,DORCHESTER,MA,02121,Active,FT,Eating & Drinking w/ Take Out,2007-01-11 08:41:04,16174279404,,0.0,0.0
634,Cornish Pasty Co. Boston,51A Massachusetts,Boston,MA,02115,Active,FS,Eating & Drinking,2016-05-18 10:39:25,16027938445,352009.0,0.0,0.0
635,Cornwall's,648 Beacon,Boston,MA,02215,Active,FS,Eating & Drinking,2019-01-09 14:05:46,16172623749,355370.0,0.0,0.0
636,CORPORATE CHEFS,2 GUEST,BRIGHTON,MA,02135,Active,FS,Eating & Drinking,2007-02-27 12:38:39,19783727400,,0.0,0.0
637,CORRIB PUB,396 Market,Brighton,MA,02135,Active,FS,Eating & Drinking,2006-12-07 13:34:13,10000000000,90280.0,42.3499,-71.15277
638,CORRIB PUB AND RESTAURANT,2030 Centre,West Roxbury,MA,02132,Active,FS,Eating & Drinking,2006-12-07 13:34:42,16174694177,158200.0,42.280727,-71.157951
639,Cosi,133 Federal,Boston,MA,02110,Active,FS,Eating & Drinking,2006-12-07 13:36:34,15084352100,57153.0,42.35426,-71.0566
640,Cosmica @ the Revolution Hotel,40 Berkeley,Boston,MA,02116,Active,FS,Eating & Drinking,2019-07-05 09:52:03,16174230069,15025.0,42.34594,-71.0709
641,Costello's Tavern Inc,717 Centre,Jamaica Plain,MA,02130,Active,FS,Eating & Drinking,2006-12-07 13:33:55,16175229263,28177.0,42.31124,-71.11473
642,Country Kitchen,830 Blue Hill,Dorchester,MA,02124,Active,FS,Eating & Drinking,2009-01-30 13:13:07,16172124413,16567.0,42.29621,-71.08718
643,Countway LIbrary Cafe,10 Shattuck,Boston,MA,02115,Active,FS,Eating & Drinking,2019-10-28 13:05:34,16174326165,125974.0,42.335067,-71.103716
644,Courtyard Boston Downtown,275 Tremont,Boston,MA,02116,Active,FS,Eating & Drinking,2006-12-07 13:34:43,16177282110,158150.0,42.350032,-71.065531
645,Courtyard by Marriot Boston - The Bistro,96 Beverly,Boston,MA,02114,Active,FS,Eating & Drinking,2015-11-13 10:24:46,16173999528,348029.0,0.0,0.0
646,Courtyard By Marriott,65R Boston,Dorchester,MA,02125,Active,FS,Eating & Drinking,2007-05-01 14:36:19,16174368200,17176.0,42.32815,-71.060075
647,COURTYARD CAFE,200 Longwood,Boston,MA,02115,Active,FS,Eating & Drinking,2006-12-07 13:36:23,16174326169,156320.0,42.33616,-71.10267
648,COURTYARD CAFE,275 Tremont,Boston,MA,02116,Active,FS,Eating & Drinking,2006-12-07 13:36:42,16174261400,158150.0,42.350032,-71.065531
649,COURTYARD CAFE,77 Warren,Brighton,MA,02135,Active,FS,Eating & Drinking,2016-11-22 11:32:39,16175625221,158223.0,42.349008,-71.142658
650,COURTYARD MARRIOTT COPLEY,88 Exeter,Boston,MA,02116,Active,FS,Eating & Drinking,2006-12-07 13:36:01,16174379300,157810.0,42.3486,-71.078818
651,Courtyard Marriott Logan Airport,225 William F McClellan,East Boston,MA,02128,Active,FS,Eating & Drinking,2017-09-14 13:12:46,16175695250,336914.0,42.38725,-71.01656
652,CQ BBQ & Taco,79 Hancock,Dorchester,MA,02125,Active,FT,Eating & Drinking w/ Take Out,2020-10-13 11:35:39,18573893412,351540.0,0.0,0.0
653,Crab Du Jour,950 Hyde Park,Hyde Park,MA,02136,Active,FT,Eating & Drinking w/ Take Out,2021-01-15 12:20:47,16179109311,156240.0,42.266967,-71.120553
654,Crave Mad For Chicken,75 Kneeland,Boston,MA,02111,Active,FS,Eating & Drinking,2014-01-31 14:31:03,16176694752,157505.0,42.350178,-71.06061
655,Crazy Dough's Pizza,2201 Commonwealth,Brighton,MA,02135,Active,FT,Eating & Drinking w/ Take Out,2015-06-19 08:46:32,16172025769,156893.0,42.33975,-71.166398
656,Crescent Ridge Dairy,100 Hanover,Boston,MA,02108,Active,FT,Eating & Drinking w/ Take Out,2015-03-30 11:29:05,17817607569,355634.0,0.0,0.0
657,CRISPY CREPES CAFE,714 Commonwealth,Boston,MA,02215,Active,FT,Eating & Drinking w/ Take Out,2016-01-08 12:42:34,16178599585,157171.0,42.349573,-71.105658
658,Crispy Dough Pizzeria,1512 TREMONT,Mission Hill/,MA,02120,Active,FS,Eating & Drinking,2012-09-25 13:58:13,16174457799,0.0,0.0,0.0
659,CROKE PARK,268 Broadway,South Boston,MA,02127,Active,FS,Eating & Drinking,2006-12-07 13:34:30,16172686205,155852.0,42.339275,-71.051191
660,Crown Fried Chicken,344 Warren,Roxbury,MA,02119,Active,FS,Eating & Drinking,2018-01-17 14:10:24,16174451414,143259.0,42.31898,-71.08113
661,Crudo,78 Salem,Boston,MA,02113,Active,FS,Eating & Drinking,2014-11-14 13:20:36,16174918050,169396.0,42.363692,-71.05591
662,Crystal/Gorage Lounge,20 Linden,Allston,MA,02134,Active,FS,Eating & Drinking,2012-01-27 15:09:26,16172064820,167091.0,42.355486,-71.130715
663,Cunard Tavern,24 Orleans,East Boston,MA,02128,Active,FS,Eating & Drinking,2016-07-15 09:54:56,16175677609,393468.0,0.0,0.0
664,Cuppa Coffee,275 Albany,Roxbury,MA,02118,Active,FT,Eating & Drinking w/ Take Out,2014-11-26 11:09:49,15089306297,1536.0,42.343759,-71.062729
665,CUPPACOFFEE,1 Merrimac,Boston,MA,02114,Active,FT,Eating & Drinking w/ Take Out,2011-09-27 10:32:18,15089306297,342817.0,0.0,0.0
666,Curds & Co,100 Hanover,Boston,MA,02108,Active,FT,Eating & Drinking w/ Take Out,2019-09-27 11:19:05,16178790565,355634.0,0.0,0.0
667,Currito Burrito,300 Terminal,East Boston,MA,02128,Active,FT,Eating & Drinking w/ Take Out,2015-08-21 12:19:57,10000000000,,0.0,0.0
668,Cusser's Roast Beef and Seafood,201 Brookline,Boston,MA,02215,Active,FT,Eating & Drinking w/ Take Out,2020-09-16 15:47:03,16179093144,340960.0,42.344649,-71.102201
669,Cusser's Roast Beef and Seafood- K6,80 Causeway,Boston,MA,02114,Active,FT,Eating & Drinking w/ Take Out,2020-02-26 10:48:08,16179175193,423633.0,0.0,0.0
670,D Coal Pot,984 Hyde Park,Hyde Park,MA,02136,Active,FT,Eating & Drinking w/ Take Out,2013-07-01 14:36:06,18573459512,166488.0,42.266054,-71.12084
671,Da Long Yi Hot Pot,137 Brighton,Allston,MA,02134,Active,FS,Eating & Drinking,2021-08-30 11:50:23,10000000000,155840.0,42.353116,-71.131381
672,Dahlak Restaurant,1127 Harrison,Roxbury,MA,02119,Active,FT,Eating & Drinking w/ Take Out,2021-05-24 09:39:55,16174270461,157231.0,42.330446,-71.08203
673,Daily Catch,323 Hanover,Boston,MA,02113,Active,FS,Eating & Drinking,2006-12-07 13:34:02,16177192588,352164.0,0.0,0.0
674,Daiquiris & Daisies,100 High,Boston,MA,02110,Active,FS,Eating & Drinking,2019-10-04 10:12:37,16172094627,342934.0,42.354448,-71.05536
675,Dana Farber Cancer Institute Cafeteria,450 Brookline,Boston,MA,02215,Active,FS,Eating & Drinking,2010-07-22 09:41:51,16176323186,,0.0,0.0
676,D'Angelos,700 Atlantic,Boston,MA,02110,Active,FT,Eating & Drinking w/ Take Out,2019-12-30 10:20:49,16173644300,156723.0,0.0,0.0
677,Darbar Indo-Pak Rest.,130 Beacon,Brighton,MA,02135,Active,FS,Eating & Drinking,2009-08-07 10:39:22,10000000000,12557.0,42.35489,-71.14476
678,Darryl's Corner Bar and Kitchen,604 Columbus,Roxbury,MA,02118,Active,FS,Eating & Drinking,2018-10-10 13:24:16,16175361100,156491.0,42.33975,-71.082398
679,Dash Cafe,1 Henshaw,Brighton,MA,02135,Active,FS,Eating & Drinking,2012-04-25 12:22:15,16172352797,166187.0,42.349463,-71.149648
680,DAVIO'S,300 Terminal,East Boston,MA,02128,Active,FS,Eating & Drinking,2019-02-01 13:09:13,10000000000,,0.0,0.0
681,DAVIO'S,75 Arlington,Boston,MA,02117,Active,FS,Eating & Drinking,2006-12-07 13:35:39,16177974810,156164.0,42.350682,-71.070358
682,Davios Northern Italian Steakhouse,50 Liberty ,Boston,MA,02210,Active,FS,Eating & Drinking,2019-04-05 10:34:43,16179907939,355282.0,0.0,0.0
683,DAYIB CAFE,722 Shawmut,Roxbury,MA,02119,Active,FT,Eating & Drinking w/ Take Out,2006-12-07 13:35:49,16176995306,157649.0,42.332783,-71.083221
684,DBAR,1236 Dorchester,Dorchester,MA,02125,Active,FS,Eating & Drinking,2006-12-07 13:36:26,16172654490,156562.0,42.308431,-71.058031
685,D'BENNY'S SUBS,1433 DORCHESTER ,DORCHESTER,MA,02124,Active,FT,Eating & Drinking w/ Take Out,2006-12-07 13:36:41,16179136287,,0.0,0.0
686,DD1/B14,4 Jersey,Boston,MA,02215,Active,FT,Eating & Drinking w/ Take Out,2008-11-16 11:10:35,16175366683,424258.0,0.0,0.0
687,DD2,4 Jersey,Boston,MA,02215,Active,FT,Eating & Drinking w/ Take Out,2008-11-16 11:11:55,16175366683,424258.0,0.0,0.0
688,Deja - Brew,704 Broadway,South Boston,MA,02127,Active,FS,Eating & Drinking,2006-12-07 13:34:45,16172697462,158055.0,42.33579,-71.037238
689,Del Frisco's Double eagle Steak House,880 Boylston,Boston,MA,02199,Active,FS,Eating & Drinking,2017-09-07 12:23:02,18176013421,352615.0,0.0,0.0
690,Delfino Restaurant,754 South,Roslindale,MA,02131,Active,FS,Eating & Drinking,2006-12-07 13:35:27,16173646738,128944.0,42.28702,-71.12948
691,DelFriscos Double Eagle Steak House,250 Northern,South Boston,MA,02210,Active,FS,Eating & Drinking,2010-11-04 10:25:12,12147251112,342824.0,0.0,0.0
692,DELI OF COURSE,451 D,Boston,MA,02127,Active,FT,Eating & Drinking w/ Take Out,2006-12-07 13:35:22,17816621277,157722.0,42.345194,-71.041978
693,Deli One,85 ARCH ST,BOSTON,MA,02110,Active,FT,Eating & Drinking w/ Take Out,2008-02-26 13:08:52,16172927825,,0.0,0.0
694,Delicias Del Caribe,149 Stoughton,Dorchester,MA,02125,Active,FT,Eating & Drinking w/ Take Out,2009-12-28 15:25:46,16173793381,131112.0,42.314644,-71.060322
695,Delicious Yogurt,4198 Washington,Roslindale,MA,02131,Active,FT,Eating & Drinking w/ Take Out,2014-02-19 08:32:37,10000000000,145150.0,42.28683,-71.12736
696,Delini Gelato,5 Bellevue,West Roxbury,MA,02132,Active,FT,Eating & Drinking w/ Take Out,2019-11-15 12:29:03,17742082810,13966.0,42.283522,-71.15661
697,Del's Lemonade (Vending 10),4 Jersey,Boston,MA,02215,Active,FT,Eating & Drinking w/ Take Out,2018-04-27 09:21:29,15085235781,424258.0,0.0,0.0
698,Delta Sky Club Temp Kitchen,100 Terminal,East Boston,MA,02128,Active,FS,Eating & Drinking,2021-10-19 13:52:01,18663723035,341357.0,42.364539,-71.021817
699,DELTA SKY CLUB TERMINAL A SATELLITE,100 LOGAN AIRPORT TRMNL A,EAST BOSTON,MA,02128,Active,FS,Eating & Drinking,2006-12-07 13:36:15,16175682038,,0.0,0.0
700,Delta Sky Club Terminal SAT,100 Terminal,East Boston,MA,02128,Active,FS,Eating & Drinking,2021-10-19 13:20:19,18663723035,341357.0,42.364539,-71.021817
701,Delta Sky Club Trmnl A Main,100 Terminal,East Boston,MA,02128,Active,FS,Eating & Drinking,2015-03-20 13:25:44,16175682038,341357.0,42.364539,-71.021817
702,DEM & TED INC.  PIZZA SHUTTLE,239 Meridian,East Boston,MA,02128,Active,FT,Eating & Drinking w/ Take Out,2006-12-07 13:34:30,16175610711,158185.0,42.375806,-71.038929
703,Democracy Brewing,29 Temple,Boston,MA,02111,Active,FS,Eating & Drinking,2017-10-10 13:06:22,12078384703,134064.0,42.355081,-71.062162
704,Deparma,182 Sumner,East Boston,MA,02128,Active,FS,Eating & Drinking,2016-10-17 14:26:46,16175676970,170104.0,42.369371,-71.040322
705,Deuxave,371 Commonwealth,Boston,MA,02116,Active,FS,Eating & Drinking,2010-04-22 10:39:47,10000000000,163721.0,42.349468,-71.089075
706,Devine Merci Restaurant,1296 Blue Hill,Mattapan,MA,02126,Active,FS,Eating & Drinking,2017-08-02 08:25:39,16172961300,352446.0,0.0,0.0
707,DEVLIN'S RESTAURANT,332 Washington,Brighton,MA,02135,Active,FS,Eating & Drinking,2006-12-07 13:35:21,16179436210,143520.0,42.348878,-71.152342
708,Dig Inn,25 Thomson,Boston,MA,02210,Active,FS,Eating & Drinking,2019-02-11 12:03:25,10000000000,355868.0,0.0,0.0
709,Dig Inn,277 Washington,Boston,MA,02108,Active,FS,Eating & Drinking,2016-09-12 13:00:10,19174147539,144543.0,42.357616,-71.058386
710,Dig Inn,557 Boylston,Boston,MA,02116,Active,FS,Eating & Drinking,2016-01-08 14:40:47,19174147539,18347.0,42.350703,-71.076174
